$GPRMC,035813.000,A,3845.1152,N,00916.7390,W,0.00,199.58,120514,,,D*74
$GPVTG,199.58,T,,M,0.00,N,0.01,K,D*35
$GPGGA,035814.000,3845.1152,N,00916.7390,W,2,9,0.98,155.5,M,50.7,M,0000,0000*46
$GPGSA,A,3,20,32,11,23,17,13,01,04,10,,,,1.64,0.98,1.32*02
$GPRMC,035814.000,A,3845.1152,N,00916.7390,W,0.00,199.58,120514,,,D*73
$GPVTG,199.58,T,,M,0.00,N,0.00,K,D*34
$GPGGA,035815.000,3845.1153,N,00916.7390,W,2,9,0.98,155.4,M,50.7,M,0000,0000*47
$GPGSA,A,3,20,32,11,23,17,13,01,04,10,,,,1.64,0.98,1.32*02
$GPRMC,035815.000,A,3845.1153,N,00916.7390,W,0.01,199.58,120514,,,D*72
$GPVTG,199.58,T,,M,0.01,N,0.01,K,D*34
$GPGGA,035816.000,3845.1153,N,00916.7390,W,2,9,0.98,155.4,M,50.7,M,0000,0000*44
$GPGSA,A,3,20,32,11,23,17,13,01,04,10,,,,1.64,0.98,1.32*02
$GPGSV,3,1,11,23,70,088,40,13,57,179,46,17,52,249,39,20,48,058,20*71
$GPGSV,3,2,11,33,44,189,38,04,36,310,23,01,33,119,46,10,21,266,40*7F
$GPGSV,3,3,11,11,12,137,43,32,11,067,20,31,07,040,*4B
$GPRMC,035816.000,A,3845.1153,N,00916.7390,W,0.01,199.58,120514,,,D*71
$GPVTG,199.58,T,,M,0.01,N,0.01,K,D*34
$GPGGA,035817.000,3845.1153,N,00916.7390,W,2,9,0.98,155.3,M,50.7,M,0000,0000*42
$GPGSA,A,3,20,32,11,23,17,13,01,04,10,,,,1.64,0.98,1.32*02
$GPRMC,035817.000,A,3845.1153,N,00916.7390,W,0.01,199.58,120514,,,D*70
$GPVTG,199.58,T,,M,0.01,N,0.02,K,D*37
$GPGGA,035818.000,3845.1153,N,00916.7390,W,2,9,0.98,155.3,M,50.7,M,0000,0000*4D
$GPGSA,A,3,20,32,11,23,17,13,01,04,10,,,,1.64,0.98,1.32*02
$GPRMC,035818.000,A,3845.1153,N,00916.7390,W,0.01,199.58,120514,,,D*7F
$GPVTG,199.58,T,,M,0.01,N,0.01,K,D*34
$GPGGA,035819.000,3845.1153,N,00916.7389,W,2,9,0.98,155.2,M,50.7,M,0000,0000*45
$GPGSA,A,3,20,32,11,23,17,13,01,04,10,,,,1.64,0.98,1.32*02
$GPRMC,035819.000,A,3845.1153,N,00916.7389,W,0.01,199.58,120514,,,D*76
$GPVTG,199.58,T,,M,0.01,N,0.01,K,D*34
$GPGGA,035820.000,3845.1153,N,00916.7389,W,2,9,0.98,155.1,M,50.7,M,0000,0000*4C
$GPGSA,A,3,20,32,11,23,17,13,01,04,10,,,,1.64,0.98,1.32*02
$GPRMC,035820.000,A,3845.1153,N,00916.7389,W,0.00,199.58,120514,,,D*7D
$GPVTG,199.58,T,,M,0.00,N,0.01,K,D*35
$GPGGA,035821.000,3845.1153,N,00916.7389,W,2,9,0.98,155.0,M,50.7,M,0000,0000*4C
$GPGSA,A,3,20,32,11,23,17,13,01,04,10,,,,1.64,0.98,1.32*02
$GPGSV,3,1,11,23,70,087,40,13,57,179,47,17,52,249,38,20,48,058,25*7B
$GPGSV,3,2,11,33,44,189,39,04,36,310,24,01,33,119,45,10,21,266,40*7A
$GPGSV,3,3,11,11,12,137,43,32,11,067,18,31,07,040,*40
$GPRMC,035821.000,A,3845.1153,N,00916.7389,W,0.00,199.58,120514,,,D*7C
$GPVTG,199.58,T,,M,0.00,N,0.01,K,D*35
$GPGGA,035822.000,3845.1153,N,00916.7388,W,2,8,1.12,154.9,M,50.7,M,0000,0000*44
$GPGSA,A,3,20,32,11,23,17,13,01,10,,,,,1.73,1.12,1.32*03
$GPRMC,035822.000,A,3845.1153,N,00916.7388,W,0.00,199.58,120514,,,D*7E
$GPVTG,199.58,T,,M,0.00,N,0.01,K,D*35
$GPGGA,035823.000,3845.1153,N,00916.7388,W,2,8,1.12,154.9,M,50.7,M,0000,0000*45
$GPGSA,A,3,20,32,11,23,17,13,01,10,,,,,1.73,1.12,1.32*03
$GPRMC,035823.000,A,3845.1153,N,00916.7388,W,0.01,199.58,120514,,,D*7E
$GPVTG,199.58,T,,M,0.01,N,0.01,K,D*34
$GPGGA,035824.000,3845.1153,N,00916.7388,W,2,8,1.12,154.9,M,50.7,M,0000,0000*42
$GPGSA,A,3,20,32,11,23,17,13,01,10,,,,,1.73,1.12,1.32*03
$GPRMC,035824.000,A,3845.1153,N,00916.7388,W,0.00,199.58,120514,,,D*78
$GPVTG,199.58,T,,M,0.00,N,0.01,K,D*35
$GPGGA,035825.000,3845.1153,N,00916.7387,W,2,8,1.12,154.9,M,50.7,M,0000,0000*4C
$GPGSA,A,3,20,32,11,23,17,13,01,10,,,,,1.73,1.12,1.32*03
$GPRMC,035825.000,A,3845.1153,N,00916.7387,W,0.00,199.58,120514,,,D*76
$GPVTG,199.58,T,,M,0.00,N,0.01,K,D*35
$GPGGA,035826.000,3845.1153,N,00916.7387,W,2,8,1.12,154.9,M,50.7,M,0000,0000*4F
$GPGSA,A,3,20,32,11,23,17,13,01,10,,,,,1.73,1.12,1.32*03
$GPGSV,3,1,11,23,70,087,41,13,57,179,47,17,52,249,37,20,48,058,26*76
$GPGSV,3,2,11,33,44,189,39,04,36,310,18,01,33,119,45,10,21,266,40*75
$GPGSV,3,3,11,11,12,137,43,32,11,067,18,31,07,040,*40
$GPRMC,035826.000,A,3845.1153,N,00916.7387,W,0.00,199.58,120514,,,D*75
$GPVTG,199.58,T,,M,0.00,N,0.01,K,D*35
$GPGGA,035827.000,3845.1153,N,00916.7387,W,2,8,1.12,154.8,M,50.7,M,0000,0000*4F
$GPGSA,A,3,20,32,11,23,17,13,01,10,,,,,1.73,1.12,1.32*03
$GPRMC,035827.000,A,3845.1153,N,00916.7387,W,0.00,199.58,120514,,,D*74
$GPVTG,199.58,T,,M,0.00,N,0.01,K,D*35
$GPGGA,035828.000,3845.1153,N,00916.7386,W,2,8,1.12,154.8,M,50.7,M,0000,0000*41
$GPGSA,A,3,20,32,11,23,17,13,01,10,,,,,1.73,1.12,1.32*03
$GPRMC,035828.000,A,3845.1153,N,00916.7386,W,0.01,199.58,120514,,,D*7B
$GPVTG,199.58,T,,M,0.01,N,0.01,K,D*34
$GPGGA,035829.000,3845.1153,N,00916.7386,W,2,9,0.98,154.7,M,50.7,M,0000,0000*4D
$GPGSA,A,3,20,32,11,23,17,13,01,04,10,,,,1.64,0.98,1.32*02
$GPRMC,035829.000,A,3845.1153,N,00916.7386,W,0.01,199.58,120514,,,D*7A
$GPVTG,199.58,T,,M,0.01,N,0.01,K,D*34
$GPGGA,035830.000,3845.1152,N,00916.7386,W,2,9,0.98,154.7,M,50.7,M,0000,0000*44
$GPGSA,A,3,20,32,11,23,17,13,01,04,10,,,,1.64,0.98,1.32*02
$GPRMC,035830.000,A,3845.1152,N,00916.7386,W,0.01,199.58,120514,,,D*73
$GPVTG,199.58,T,,M,0.01,N,0.02,K,D*37
$GPGGA,035831.000,3845.1152,N,00916.7385,W,2,9,0.98,154.6,M,50.7,M,0000,0000*47
$GPGSA,A,3,20,32,11,23,17,13,01,04,10,,,,1.64,0.98,1.32*02
$GPGSV,3,1,11,23,70,087,41,13,57,179,47,17,52,249,34,20,48,058,22*71
$GPGSV,3,2,11,33,44,189,39,04,36,310,24,01,33,119,45,10,21,266,40*7A
$GPGSV,3,3,11,11,12,137,43,32,11,067,17,31,07,040,*4F
$GPRMC,035831.000,A,3845.1152,N,00916.7385,W,0.01,199.58,120514,,,D*71
$GPVTG,199.58,T,,M,0.01,N,0.02,K,D*37
$GPGGA,035832.000,3845.1152,N,00916.7385,W,2,9,0.98,154.6,M,50.7,M,0000,0000*44
$GPGSA,A,3,20,32,11,23,17,13,01,04,10,,,,1.64,0.98,1.32*02
$GPRMC,035832.000,A,3845.1152,N,00916.7385,W,0.01,199.58,120514,,,D*72
$GPVTG,199.58,T,,M,0.01,N,0.01,K,D*34
$GPGGA,035833.000,3845.1153,N,00916.7385,W,2,8,1.12,154.5,M,50.7,M,0000,0000*45
$GPGSA,A,3,20,32,11,23,17,13,01,10,,,,,1.73,1.12,1.32*03
$GPRMC,035833.000,A,3845.1153,N,00916.7385,W,0.01,199.58,120514,,,D*72
$GPVTG,199.58,T,,M,0.01,N,0.01,K,D*34
$GPGGA,035834.000,3845.1153,N,00916.7384,W,2,9,0.98,154.4,M,50.7,M,0000,0000*40
$GPGSA,A,3,20,32,11,23,17,13,01,04,10,,,,1.64,0.98,1.32*02
$GPRMC,035834.000,A,3845.1153,N,00916.7384,W,0.01,199.58,120514,,,D*74
$GPVTG,199.58,T,,M,0.01,N,0.02,K,D*37
$GPGGA,035835.000,3845.1154,N,00916.7383,W,2,9,0.98,154.3,M,50.7,M,0000,0000*46
$GPGSA,A,3,20,32,11,23,17,13,01,04,10,,,,1.64,0.98,1.32*02
$GPRMC,035835.000,A,3845.1154,N,00916.7383,W,0.01,199.58,120514,,,D*75
$GPVTG,199.58,T,,M,0.01,N,0.02,K,D*37
$GPGGA,035836.000,3845.1154,N,00916.7383,W,2,9,0.98,154.2,M,50.7,M,0000,0000*44
$GPGSA,A,3,20,32,11,23,17,13,01,04,10,,,,1.64,0.98,1.32*02
$GPGSV,3,1,11,23,70,087,40,13,57,179,47,17,52,249,32,20,48,058,20*74
$GPGSV,3,2,11,33,44,189,39,04,36,310,26,01,33,119,45,10,21,266,40*78
$GPGSV,3,3,11,11,12,137,43,32,11,067,18,31,07,040,*40
$GPRMC,035836.000,A,3845.1154,N,00916.7383,W,0.01,199.58,120514,,,D*76
$GPVTG,199.58,T,,M,0.01,N,0.02,K,D*37
$GPGGA,035837.000,3845.1154,N,00916.7382,W,2,9,0.98,154.1,M,50.7,M,0000,0000*47
$GPGSA,A,3,20,32,11,23,17,13,01,04,10,,,,1.64,0.98,1.32*02
$GPRMC,035837.000,A,3845.1154,N,00916.7382,W,0.01,199.58,120514,,,D*76
$GPVTG,199.58,T,,M,0.01,N,0.01,K,D*34
$GPGGA,035838.000,3845.1155,N,00916.7382,W,2,9,0.98,154.0,M,50.7,M,0000,0000*48
$GPGSA,A,3,20,32,11,23,17,13,01,04,10,,,,1.64,0.98,1.32*02
$GPRMC,035838.000,A,3845.1155,N,00916.7382,W,0.01,199.58,120514,,,D*78
$GPVTG,199.58,T,,M,0.01,N,0.01,K,D*34
$GPGGA,035839.000,3845.1155,N,00916.7381,W,2,8,1.12,153.9,M,50.7,M,0000,0000*46
$GPGSA,A,3,20,32,11,23,17,13,01,10,,,,,1.73,1.12,1.32*03
$GPRMC,035839.000,A,3845.1155,N,00916.7381,W,0.01,199.58,120514,,,D*7A
$GPVTG,199.58,T,,M,0.01,N,0.01,K,D*34
$GPGGA,035840.000,3845.1156,N,00916.7381,W,2,9,0.98,153.8,M,50.7,M,0000,0000*48
$GPGSA,A,3,20,32,11,23,17,13,01,04,10,,,,1.64,0.98,1.32*02
$GPRMC,035840.000,A,3845.1156,N,00916.7381,W,0.01,199.58,120514,,,D*77
$GPVTG,199.58,T,,M,0.01,N,0.02,K,D*37
$GPGGA,035841.000,3845.1156,N,00916.7381,W,2,8,1.12,153.8,M,50.7,M,0000,0000*4B
$GPGSA,A,3,20,32,11,23,17,13,01,10,,,,,1.73,1.12,1.32*03
$GPGSV,3,1,11,23,70,087,40,13,57,179,47,17,52,249,29,20,48,058,25*7B
$GPGSV,3,2,11,33,44,189,39,04,36,310,17,01,33,119,45,10,21,266,39*74
$GPGSV,3,3,11,11,12,137,43,32,11,067,16,31,07,040,*4E
$GPRMC,035841.000,A,3845.1156,N,00916.7381,W,0.01,199.58,120514,,,D*76
$GPVTG,199.58,T,,M,0.01,N,0.02,K,D*37
$GPGGA,035842.000,3845.1156,N,00916.7381,W,2,9,0.98,153.8,M,50.7,M,0000,0000*4A
$GPGSA,A,3,20,32,11,23,17,13,01,04,10,,,,1.64,0.98,1.32*02
$GPRMC,035842.000,A,3845.1156,N,00916.7381,W,0.01,199.58,120514,,,D*75
$GPVTG,199.58,T,,M,0.01,N,0.01,K,D*34
$GPGGA,035843.000,3845.1156,N,00916.7381,W,2,9,0.98,153.8,M,50.7,M,0000,0000*4B
$GPGSA,A,3,20,32,11,23,17,13,01,04,10,,,,1.64,0.98,1.32*02
$GPRMC,035843.000,A,3845.1156,N,00916.7381,W,0.00,199.58,120514,,,D*75
$GPVTG,199.58,T,,M,0.00,N,0.01,K,D*35
$GPGGA,035844.000,3845.1156,N,00916.7381,W,2,9,0.98,153.7,M,50.7,M,0000,0000*43
$GPGSA,A,3,20,32,11,23,17,13,01,04,10,,,,1.64,0.98,1.32*02
$GPRMC,035844.000,A,3845.1156,N,00916.7381,W,0.00,199.58,120514,,,D*72
$GPVTG,199.58,T,,M,0.00,N,0.01,K,D*35
$GPGGA,035845.000,3845.1156,N,00916.7381,W,2,9,0.98,153.7,M,50.7,M,0000,0000*42
$GPGSA,A,3,20,32,11,23,17,13,01,04,10,,,,1.64,0.98,1.32*02
$GPRMC,035845.000,A,3845.1156,N,00916.7381,W,0.00,199.58,120514,,,D*73
$GPVTG,199.58,T,,M,0.00,N,0.00,K,D*34
$GPGGA,035846.000,3845.1156,N,00916.7381,W,2,9,0.98,153.7,M,50.7,M,0000,0000*41
$GPGSA,A,3,20,32,11,23,17,13,01,04,10,,,,1.64,0.98,1.32*02
$GPGSV,3,1,11,23,70,087,40,13,57,179,47,17,52,249,28,20,48,058,26*79
$GPGSV,3,2,11,33,44,189,39,04,36,310,17,01,33,119,45,10,21,266,38*75
$GPGSV,3,3,11,11,12,137,43,32,11,067,16,31,07,040,13*4C
$GPRMC,035846.000,A,3845.1156,N,00916.7381,W,0.01,199.58,120514,,,D*71
$GPVTG,199.58,T,,M,0.01,N,0.01,K,D*34
$GPGGA,035847.000,3845.1156,N,00916.7381,W,2,9,0.98,153.7,M,50.7,M,0000,0000*40
$GPGSA,A,3,20,32,11,23,17,13,01,04,10,,,,1.64,0.98,1.32*02
$GPRMC,035847.000,A,3845.1156,N,00916.7381,W,0.00,199.58,120514,,,D*71
$GPVTG,199.58,T,,M,0.00,N,0.01,K,D*35
$GPGGA,035848.000,3845.1156,N,00916.7381,W,2,9,0.98,153.7,M,50.7,M,0000,0000*4F
$GPGSA,A,3,20,32,11,23,17,13,01,04,10,,,,1.64,0.98,1.32*02
$GPRMC,035848.000,A,3845.1156,N,00916.7381,W,0.01,199.58,120514,,,D*7F
$GPVTG,199.58,T,,M,0.01,N,0.02,K,D*37
$GPGGA,035849.000,3845.1156,N,00916.7381,W,2,9,0.98,153.7,M,50.7,M,0000,0000*4E
$GPGSA,A,3,20,32,11,23,17,13,01,04,10,,,,1.64,0.98,1.32*02
$GPRMC,035849.000,A,3845.1156,N,00916.7381,W,0.01,199.58,120514,,,D*7E
$GPVTG,199.58,T,,M,0.01,N,0.03,K,D*36
$GPGGA,035850.000,3845.1156,N,00916.7381,W,2,9,0.98,153.7,M,50.7,M,0000,0000*46
$GPGSA,A,3,20,32,11,23,17,13,01,04,10,,,,1.64,0.98,1.32*02
$GPRMC,035850.000,A,3845.1156,N,00916.7381,W,0.01,199.58,120514,,,D*76
$GPVTG,199.58,T,,M,0.01,N,0.02,K,D*37
$GPGGA,035851.000,3845.1156,N,00916.7381,W,2,9,0.98,153.7,M,50.7,M,0000,0000*47
$GPGSA,A,3,20,32,11,23,17,13,01,04,10,,,,1.64,0.98,1.32*02
$GPGSV,3,1,11,23,70,087,39,13,57,179,46,17,52,249,28,20,48,058,25*75
$GPGSV,3,2,11,33,44,189,39,04,36,310,25,01,33,119,45,10,21,266,38*74
$GPGSV,3,3,11,11,12,137,43,32,11,067,15,31,07,040,*4D
$GPRMC,035851.000,A,3845.1156,N,00916.7381,W,0.03,199.58,120514,,,D*75
$GPVTG,199.58,T,,M,0.03,N,0.06,K,D*31
$GPGGA,035852.000,3845.1156,N,00916.7381,W,2,9,0.98,153.7,M,50.7,M,0000,0000*44
$GPGSA,A,3,20,32,11,23,17,13,01,04,10,,,,1.64,0.98,1.32*02
$GPRMC,035852.000,A,3845.1156,N,00916.7381,W,0.01,199.58,120514,,,D*74
$GPVTG,199.58,T,,M,0.01,N,0.02,K,D*37
$GPGGA,035853.000,3845.1156,N,00916.7381,W,2,9,0.98,153.7,M,50.7,M,0000,0000*45
$GPGSA,A,3,20,32,11,23,17,13,01,04,10,,,,1.64,0.98,1.32*02
$GPRMC,035853.000,A,3845.1156,N,00916.7381,W,0.01,199.58,120514,,,D*75
$GPVTG,199.58,T,,M,0.01,N,0.01,K,D*34
$GPGGA,035854.000,3845.1156,N,00916.7381,W,2,9,0.98,153.7,M,50.7,M,0000,0000*42
$GPGSA,A,3,20,32,11,23,17,13,01,04,10,,,,1.64,0.98,1.32*02
$GPRMC,035854.000,A,3845.1156,N,00916.7381,W,0.01,199.58,120514,,,D*72
$GPVTG,199.58,T,,M,0.01,N,0.02,K,D*37
$GPGGA,035855.000,3845.1156,N,00916.7381,W,2,9,0.98,153.7,M,50.7,M,0000,0000*43
$GPGSA,A,3,20,32,11,23,17,13,01,04,10,,,,1.64,0.98,1.32*02
$GPRMC,035855.000,A,3845.1156,N,00916.7381,W,0.00,199.58,120514,,,D*72
$GPVTG,199.58,T,,M,0.00,N,0.01,K,D*35
$GPGGA,035856.000,3845.1156,N,00916.7381,W,2,9,0.98,153.7,M,50.7,M,0000,0000*40
$GPGSA,A,3,20,32,11,23,17,13,01,04,10,,,,1.64,0.98,1.32*02
$GPGSV,3,1,11,23,70,087,39,13,57,179,46,17,52,249,30,20,48,058,25*7C
$GPGSV,3,2,11,33,44,189,39,04,36,310,23,01,33,119,45,10,21,266,38*72
$GPGSV,3,3,11,11,12,137,43,32,11,067,15,31,07,040,*4D
$GPRMC,035856.000,A,3845.1156,N,00916.7381,W,0.00,199.58,120514,,,D*71
$GPVTG,199.58,T,,M,0.00,N,0.01,K,D*35
$GPGGA,035857.000,3845.1156,N,00916.7381,W,2,9,0.98,153.7,M,50.7,M,0000,0000*41
$GPGSA,A,3,20,32,11,23,17,13,01,04,10,,,,1.64,0.98,1.31*01
$GPRMC,035857.000,A,3845.1156,N,00916.7381,W,0.00,199.58,120514,,,D*70
$GPVTG,199.58,T,,M,0.00,N,0.01,K,D*35
$GPGGA,035858.000,3845.1156,N,00916.7381,W,2,8,1.12,153.7,M,50.7,M,0000,0000*4C
$GPGSA,A,3,20,32,11,23,17,13,01,10,,,,,1.73,1.12,1.32*03
$GPRMC,035858.000,A,3845.1156,N,00916.7381,W,0.01,199.58,120514,,,D*7E
$GPVTG,199.58,T,,M,0.01,N,0.01,K,D*34
$GPGGA,035859.000,3845.1156,N,00916.7381,W,2,9,0.98,153.7,M,50.7,M,0000,0000*4F
$GPGSA,A,3,20,32,11,23,17,13,01,04,10,,,,1.64,0.98,1.31*01
$GPRMC,035859.000,A,3845.1156,N,00916.7381,W,0.00,199.58,120514,,,D*7E
$GPVTG,199.58,T,,M,0.00,N,0.01,K,D*35
$GPGGA,035900.000,3845.1156,N,00916.7381,W,2,9,0.98,153.7,M,50.7,M,0000,0000*42
$GPGSA,A,3,20,32,11,23,17,13,01,04,10,,,,1.64,0.98,1.32*02
$GPRMC,035900.000,A,3845.1156,N,00916.7381,W,0.01,199.58,120514,,,D*72
$GPVTG,199.58,T,,M,0.01,N,0.01,K,D*34
$GPGGA,035901.000,3845.1156,N,00916.7381,W,2,9,0.98,153.7,M,50.7,M,0000,0000*43
$GPGSA,A,3,20,32,11,23,17,13,01,04,10,,,,1.64,0.98,1.31*01
$GPGSV,3,1,11,23,70,087,39,13,57,179,45,17,52,249,30,20,48,058,25*7F
$GPGSV,3,2,11,33,44,189,38,04,36,310,17,01,33,119,45,10,21,266,38*74
$GPGSV,3,3,11,11,12,137,42,32,11,067,16,31,07,039,*41
$GPRMC,035901.000,A,3845.1156,N,00916.7381,W,0.00,199.58,120514,,,D*72
$GPVTG,199.58,T,,M,0.00,N,0.01,K,D*35
$GPGGA,035902.000,3845.1156,N,00916.7381,W,2,9,0.98,153.7,M,50.7,M,0000,0000*40
$GPGSA,A,3,20,32,11,23,17,13,01,04,10,,,,1.64,0.98,1.31*01
$GPRMC,035902.000,A,3845.1156,N,00916.7381,W,0.01,199.58,120514,,,D*70
$GPVTG,199.58,T,,M,0.01,N,0.01,K,D*34
$GPGGA,035903.000,3845.1156,N,00916.7381,W,2,9,0.98,153.7,M,50.7,M,0000,0000*41
$GPGSA,A,3,20,32,11,23,17,13,01,04,10,,,,1.64,0.98,1.31*01
$GPRMC,035903.000,A,3845.1156,N,00916.7381,W,0.01,199.58,120514,,,D*71
$GPVTG,199.58,T,,M,0.01,N,0.01,K,D*34
$GPGGA,035904.000,3845.1156,N,00916.7381,W,2,9,0.98,153.7,M,50.7,M,0000,0000*46
$GPGSA,A,3,20,32,11,23,17,13,01,04,10,,,,1.64,0.98,1.31*01
$GPRMC,035904.000,A,3845.1156,N,00916.7381,W,0.00,199.58,120514,,,D*77
$GPVTG,199.58,T,,M,0.00,N,0.00,K,D*34
$GPGGA,035905.000,3845.1156,N,00916.7381,W,2,9,0.98,153.7,M,50.7,M,0000,0000*47
$GPGSA,A,3,20,32,11,23,17,13,01,04,10,,,,1.64,0.98,1.31*01
$GPRMC,035905.000,A,3845.1156,N,00916.7381,W,0.01,199.58,120514,,,D*77
$GPVTG,199.58,T,,M,0.01,N,0.01,K,D*34
$GPGGA,035906.000,3845.1156,N,00916.7381,W,2,9,0.98,153.7,M,50.7,M,0000,0000*44
$GPGSA,A,3,20,32,11,23,17,13,01,04,10,,,,1.64,0.98,1.31*01
$GPGSV,3,1,11,23,70,087,37,13,57,179,43,17,52,249,23,20,48,058,23*73
$GPGSV,3,2,11,33,44,189,39,04,36,310,18,01,33,120,45,10,21,266,38*70
$GPGSV,3,3,11,11,12,137,42,32,11,067,16,31,07,039,*41
$GPRMC,035906.000,A,3845.1156,N,00916.7381,W,0.00,199.58,120514,,,D*75
$GPVTG,199.58,T,,M,0.00,N,0.00,K,D*34
$GPGGA,035907.000,3845.1156,N,00916.7381,W,2,9,0.98,153.8,M,50.7,M,0000,0000*4A
$GPGSA,A,3,20,32,11,23,17,13,01,04,10,,,,1.64,0.98,1.31*01
$GPRMC,035907.000,A,3845.1156,N,00916.7381,W,0.00,199.58,120514,,,D*74
$GPVTG,199.58,T,,M,0.00,N,0.01,K,D*35
$GPGGA,035908.000,3845.1156,N,00916.7381,W,2,9,0.98,153.8,M,50.7,M,0000,0000*45
$GPGSA,A,3,20,32,11,23,17,13,01,04,10,,,,1.64,0.98,1.31*01
$GPRMC,035908.000,A,3845.1156,N,00916.7381,W,0.00,199.58,120514,,,D*7B
$GPVTG,199.58,T,,M,0.00,N,0.00,K,D*34
$GPGGA,035909.000,3845.1156,N,00916.7381,W,2,9,0.98,153.8,M,50.7,M,0000,0000*44
$GPGSA,A,3,20,32,11,23,17,13,01,04,10,,,,1.64,0.98,1.31*01
$GPRMC,035909.000,A,3845.1156,N,00916.7381,W,0.00,199.58,120514,,,D*7A
$GPVTG,199.58,T,,M,0.00,N,0.01,K,D*35
$GPGGA,035910.000,3845.1156,N,00916.7381,W,2,9,0.98,153.8,M,50.7,M,0000,0000*4C
$GPGSA,A,3,20,32,11,23,17,13,01,04,10,,,,1.64,0.98,1.31*01
$GPRMC,035910.000,A,3845.1156,N,00916.7381,W,0.01,199.58,120514,,,D*73
$GPVTG,199.58,T,,M,0.01,N,0.01,K,D*34
$GPGGA,035911.000,3845.1156,N,00916.7381,W,2,9,0.98,153.8,M,50.7,M,0000,0000*4D
$GPGSA,A,3,20,32,11,23,17,13,01,04,10,,,,1.64,0.98,1.31*01
$GPGSV,3,1,11,23,70,087,36,13,57,179,41,17,52,249,18,20,48,058,23*78
$GPGSV,3,2,11,33,44,189,39,04,37,310,16,01,33,120,45,10,21,266,39*7E
$GPGSV,3,3,11,11,12,137,42,32,11,067,15,31,07,039,*42
$GPRMC,035911.000,A,3845.1156,N,00916.7381,W,0.00,199.58,120514,,,D*73
$GPVTG,199.58,T,,M,0.00,N,0.00,K,D*34
$GPGGA,035912.000,3845.1156,N,00916.7381,W,2,9,0.98,153.8,M,50.7,M,0000,0000*4E
$GPGSA,A,3,20,32,11,23,17,13,01,04,10,,,,1.64,0.98,1.31*01
$GPRMC,035912.000,A,3845.1156,N,00916.7381,W,0.01,199.58,120514,,,D*71
$GPVTG,199.58,T,,M,0.01,N,0.01,K,D*34
$GPGGA,035913.000,3845.1156,N,00916.7381,W,2,9,0.98,153.8,M,50.7,M,0000,0000*4F
$GPGSA,A,3,20,32,11,23,17,13,01,04,10,,,,1.64,0.98,1.31*01
$GPRMC,035913.000,A,3845.1156,N,00916.7381,W,0.01,199.58,120514,,,D*70
$GPVTG,199.58,T,,M,0.01,N,0.02,K,D*37
$GPGGA,035914.000,3845.1156,N,00916.7381,W,2,9,0.98,153.8,M,50.7,M,0000,0000*48
$GPGSA,A,3,20,32,11,23,17,13,01,04,10,,,,1.64,0.98,1.31*01
$GPRMC,035914.000,A,3845.1156,N,00916.7381,W,0.00,199.58,120514,,,D*76
$GPVTG,199.58,T,,M,0.00,N,0.01,K,D*35
$GPGGA,035915.000,3845.1156,N,00916.7381,W,2,9,0.98,153.8,M,50.7,M,0000,0000*49
$GPGSA,A,3,20,32,11,23,17,13,01,04,10,,,,1.64,0.98,1.31*01
$GPRMC,035915.000,A,3845.1156,N,00916.7381,W,0.01,199.58,120514,,,D*76
$GPVTG,199.58,T,,M,0.01,N,0.02,K,D*37
$GPGGA,035916.000,3845.1154,N,00916.7382,W,2,9,0.98,154.1,M,50.7,M,0000,0000*45
$GPGSA,A,3,20,32,11,23,17,13,01,04,10,,,,1.64,0.98,1.31*01
$GPGSV,3,1,11,23,70,087,36,13,57,179,40,17,52,249,30,20,48,058,19*7A
$GPGSV,3,2,11,33,44,189,39,04,37,310,20,01,33,120,46,10,21,266,37*76
$GPGSV,3,3,11,11,12,137,42,32,11,067,15,31,07,039,*42
$GPRMC,035916.000,A,3845.1154,N,00916.7382,W,0.01,199.58,120514,,,D*74
$GPVTG,199.58,T,,M,0.01,N,0.02,K,D*37
$GPGGA,035917.000,3845.1153,N,00916.7383,W,2,9,0.98,154.4,M,50.7,M,0000,0000*47
$GPGSA,A,3,20,32,11,23,17,13,01,04,10,,,,1.64,0.98,1.31*01
$GPRMC,035917.000,A,3845.1153,N,00916.7383,W,0.01,199.58,120514,,,D*73
$GPVTG,199.58,T,,M,0.01,N,0.01,K,D*34
$GPGGA,035918.000,3845.1153,N,00916.7383,W,2,9,0.98,154.7,M,50.7,M,0000,0000*4B
$GPGSA,A,3,20,32,11,23,17,13,01,04,10,,,,1.64,0.98,1.31*01
$GPRMC,035918.000,A,3845.1153,N,00916.7383,W,0.01,199.58,120514,,,D*7C
$GPVTG,199.58,T,,M,0.01,N,0.02,K,D*37
$GPGGA,035919.000,3845.1151,N,00916.7384,W,2,9,0.98,155.0,M,50.7,M,0000,0000*49
$GPGSA,A,3,20,32,11,23,17,13,01,04,10,,,,1.64,0.98,1.31*01
$GPRMC,035919.000,A,3845.1151,N,00916.7384,W,0.01,199.58,120514,,,D*78
$GPVTG,199.58,T,,M,0.01,N,0.02,K,D*37
$GPGGA,035920.000,3845.1151,N,00916.7385,W,2,9,0.98,155.2,M,50.7,M,0000,0000*40
$GPGSA,A,3,20,32,11,23,17,13,01,04,10,,,,1.64,0.98,1.31*01
$GPRMC,035920.000,A,3845.1151,N,00916.7385,W,0.01,199.58,120514,,,D*73
$GPVTG,199.58,T,,M,0.01,N,0.02,K,D*37
$GPGGA,035921.000,3845.1150,N,00916.7386,W,2,9,0.98,155.4,M,50.7,M,0000,0000*45
$GPGSA,A,3,20,32,11,23,17,13,01,04,10,,,,1.64,0.98,1.31*01
$GPGSV,3,1,11,23,70,087,36,13,57,179,40,17,52,248,31,20,48,058,20*70
$GPGSV,3,2,11,33,44,189,39,04,37,310,20,01,33,120,45,10,21,266,36*74
$GPGSV,3,3,11,11,12,137,42,32,11,067,16,31,07,039,*41
$GPRMC,035921.000,A,3845.1150,N,00916.7386,W,0.01,199.58,120514,,,D*70
$GPVTG,199.58,T,,M,0.01,N,0.02,K,D*37
$GPGGA,035922.000,3845.1149,N,00916.7387,W,2,9,0.98,155.7,M,50.7,M,0000,0000*4C
$GPGSA,A,3,20,32,11,23,17,13,01,04,10,,,,1.64,0.98,1.31*01
$GPRMC,035922.000,A,3845.1149,N,00916.7387,W,0.01,199.58,120514,,,D*7A
$GPVTG,199.58,T,,M,0.01,N,0.02,K,D*37
$GPGGA,035923.000,3845.1147,N,00916.7387,W,2,9,0.98,156.0,M,50.7,M,0000,0000*47
$GPGSA,A,3,20,32,11,23,17,13,01,04,10,,,,1.64,0.98,1.31*01
$GPRMC,035923.000,A,3845.1147,N,00916.7387,W,0.01,199.58,120514,,,D*75
$GPVTG,199.58,T,,M,0.01,N,0.02,K,D*37
$GPGGA,035924.000,3845.1147,N,00916.7387,W,2,9,0.98,156.0,M,50.7,M,0000,0000*40
$GPGSA,A,3,20,32,11,23,17,13,01,04,10,,,,1.64,0.98,1.31*01
$GPRMC,035924.000,A,3845.1147,N,00916.7387,W,0.01,199.58,120514,,,D*72
$GPVTG,199.58,T,,M,0.01,N,0.01,K,D*34
$GPGGA,035925.000,3845.1146,N,00916.7388,W,2,9,0.98,156.2,M,50.7,M,0000,0000*4D
$GPGSA,A,3,20,32,11,23,17,13,01,04,10,,,,1.64,0.98,1.31*01
$GPRMC,035925.000,A,3845.1146,N,00916.7388,W,0.01,199.58,120514,,,D*7D
$GPVTG,199.58,T,,M,0.01,N,0.01,K,D*34
$GPGGA,035926.000,3845.1145,N,00916.7388,W,2,9,0.98,156.4,M,50.7,M,0000,0000*4B
$GPGSA,A,3,20,32,11,23,17,13,01,04,10,,,,1.64,0.98,1.31*01
$GPGSV,3,1,11,23,70,087,38,13,57,179,42,17,52,248,33,20,48,058,19*74
$GPGSV,3,2,11,33,44,189,39,04,37,310,20,01,33,120,45,10,21,266,34*76
$GPGSV,3,3,11,11,12,137,42,32,11,067,15,31,07,039,*42
$GPRMC,035926.000,A,3845.1145,N,00916.7388,W,0.01,199.58,120514,,,D*7D
$GPVTG,199.58,T,,M,0.01,N,0.02,K,D*37
$GPGGA,035927.000,3845.1145,N,00916.7389,W,2,9,0.98,156.5,M,50.7,M,0000,0000*4A
$GPGSA,A,3,20,32,11,23,17,13,01,04,10,,,,1.64,0.98,1.31*01
$GPRMC,035927.000,A,3845.1145,N,00916.7389,W,0.01,199.58,120514,,,D*7D
$GPVTG,199.58,T,,M,0.01,N,0.02,K,D*37
$GPGGA,035928.000,3845.1144,N,00916.7389,W,2,9,0.98,156.6,M,50.7,M,0000,0000*47
$GPGSA,A,3,20,32,11,23,17,13,01,04,10,,,,1.64,0.98,1.31*01
$GPRMC,035928.000,A,3845.1144,N,00916.7389,W,0.02,199.58,120514,,,D*70
$GPVTG,199.58,T,,M,0.02,N,0.03,K,D*35
$GPGGA,035929.000,3845.1144,N,00916.7390,W,2,9,0.98,156.7,M,50.7,M,0000,0000*4F
$GPGSA,A,3,20,32,11,23,17,13,01,04,10,,,,1.64,0.98,1.31*01
$GPRMC,035929.000,A,3845.1144,N,00916.7390,W,0.02,199.58,120514,,,D*79
$GPVTG,199.58,T,,M,0.02,N,0.03,K,D*35
$GPGGA,035930.000,3845.1144,N,00916.7390,W,2,9,0.98,156.7,M,50.7,M,0000,0000*47
$GPGSA,A,3,20,32,11,23,17,13,01,04,10,,,,1.64,0.98,1.31*01
$GPRMC,035930.000,A,3845.1144,N,00916.7390,W,0.02,199.58,120514,,,D*71
$GPVTG,199.58,T,,M,0.02,N,0.03,K,D*35
$GPGGA,035931.000,3845.1144,N,00916.7390,W,2,9,0.98,156.7,M,50.7,M,0000,0000*46
$GPGSA,A,3,20,32,11,23,17,13,01,04,10,,,,1.64,0.98,1.31*01
$GPGSV,3,1,11,23,70,086,37,13,57,179,45,17,52,248,31,20,48,058,19*7F
$GPGSV,3,2,11,33,44,189,39,04,37,310,26,01,33,120,45,10,21,266,36*72
$GPGSV,3,3,11,11,12,137,42,32,11,067,14,31,07,039,*43
$GPRMC,035931.000,A,3845.1144,N,00916.7390,W,0.01,199.58,120514,,,D*73
$GPVTG,199.58,T,,M,0.01,N,0.03,K,D*36
$GPGGA,035932.000,3845.1145,N,00916.7390,W,2,9,0.98,156.6,M,50.7,M,0000,0000*45
$GPGSA,A,3,20,32,11,23,17,13,01,04,10,,,,1.64,0.98,1.31*01
$GPRMC,035932.000,A,3845.1145,N,00916.7390,W,0.01,199.58,120514,,,D*71
$GPVTG,199.58,T,,M,0.01,N,0.02,K,D*37
$GPGGA,035933.000,3845.1145,N,00916.7390,W,2,9,0.98,156.6,M,50.7,M,0000,0000*44
$GPGSA,A,3,20,32,11,23,17,13,01,04,10,,,,1.64,0.98,1.31*01
$GPRMC,035933.000,A,3845.1145,N,00916.7390,W,0.01,199.58,120514,,,D*70
$GPVTG,199.58,T,,M,0.01,N,0.02,K,D*37
$GPGGA,035934.000,3845.1145,N,00916.7390,W,2,9,0.98,156.6,M,50.7,M,0000,0000*43
$GPGSA,A,3,20,32,11,23,17,13,01,04,10,,,,1.64,0.98,1.31*01
$GPRMC,035934.000,A,3845.1145,N,00916.7390,W,0.01,199.58,120514,,,D*77
$GPVTG,199.58,T,,M,0.01,N,0.01,K,D*34
$GPGGA,035935.000,3845.1146,N,00916.7389,W,2,9,0.98,156.5,M,50.7,M,0000,0000*4A
$GPGSA,A,3,20,32,11,23,17,13,01,04,10,,,,1.64,0.98,1.31*01
$GPRMC,035935.000,A,3845.1146,N,00916.7389,W,0.01,199.58,120514,,,D*7D
$GPVTG,199.58,T,,M,0.01,N,0.01,K,D*34
$GPGGA,035936.000,3845.1146,N,00916.7388,W,2,9,0.98,156.4,M,50.7,M,0000,0000*49
$GPGSA,A,3,20,32,11,23,17,13,01,04,10,,,,1.64,0.98,1.31*01
$GPGSV,3,1,11,23,70,086,37,13,57,179,46,17,52,248,33,20,48,058,22*76
$GPGSV,3,2,11,33,44,189,39,04,37,310,24,01,33,120,45,10,21,266,37*71
$GPGSV,3,3,11,11,12,137,42,32,11,067,16,31,07,039,*41
$GPRMC,035936.000,A,3845.1146,N,00916.7388,W,0.01,199.58,120514,,,D*7F
$GPVTG,199.58,T,,M,0.01,N,0.01,K,D*34
$GPGGA,035937.000,3845.1147,N,00916.7387,W,2,9,0.98,156.3,M,50.7,M,0000,0000*41
$GPGSA,A,3,20,32,11,23,17,13,01,04,10,,,,1.64,0.98,1.31*01
$GPRMC,035937.000,A,3845.1147,N,00916.7387,W,0.01,199.58,120514,,,D*70
$GPVTG,199.58,T,,M,0.01,N,0.02,K,D*37
$GPGGA,035938.000,3845.1148,N,00916.7385,W,2,9,0.98,156.1,M,50.7,M,0000,0000*41
$GPGSA,A,3,20,32,11,23,17,13,01,04,10,,,,1.64,0.98,1.31*01
$GPRMC,035938.000,A,3845.1148,N,00916.7385,W,0.01,199.58,120514,,,D*72
$GPVTG,199.58,T,,M,0.01,N,0.02,K,D*37
$GPGGA,035939.000,3845.1150,N,00916.7383,W,2,9,0.98,156.0,M,50.7,M,0000,0000*4E
$GPGSA,A,3,20,32,11,23,17,13,01,04,10,,,,1.64,0.98,1.31*01
$GPRMC,035939.000,A,3845.1150,N,00916.7383,W,0.01,199.58,120514,,,D*7C
$GPVTG,199.58,T,,M,0.01,N,0.02,K,D*37
$GPGGA,035940.000,3845.1151,N,00916.7382,W,2,9,0.98,155.8,M,50.7,M,0000,0000*4B
$GPGSA,A,3,20,32,11,23,17,13,01,04,10,,,,1.64,0.98,1.31*01
$GPRMC,035940.000,A,3845.1151,N,00916.7382,W,0.01,199.58,120514,,,D*72
$GPVTG,199.58,T,,M,0.01,N,0.02,K,D*37
$GPGGA,035941.000,3845.1152,N,00916.7380,W,2,9,0.98,155.6,M,50.7,M,0000,0000*45
$GPGSA,A,3,20,32,11,23,17,13,01,04,10,,,,1.64,0.98,1.31*01
$GPGSV,3,1,11,23,70,086,37,13,57,179,46,17,52,248,37,20,48,058,24*74
$GPGSV,3,2,11,33,44,189,39,04,37,310,27,01,33,120,44,10,21,266,37*73
$GPGSV,3,3,11,11,12,137,42,32,11,067,14,31,07,039,*43
$GPRMC,035941.000,A,3845.1152,N,00916.7380,W,0.01,199.58,120514,,,D*72
$GPVTG,199.58,T,,M,0.01,N,0.02,K,D*37
$GPGGA,035942.000,3845.1153,N,00916.7378,W,2,9,0.98,155.4,M,50.7,M,0000,0000*42
$GPGSA,A,3,20,32,11,23,17,13,01,04,10,,,,1.64,0.98,1.31*01
$GPRMC,035942.000,A,3845.1153,N,00916.7378,W,0.01,199.58,120514,,,D*77
$GPVTG,199.58,T,,M,0.01,N,0.03,K,D*36
$GPGGA,035943.000,3845.1154,N,00916.7377,W,2,9,0.98,155.2,M,50.7,M,0000,0000*4D
$GPGSA,A,3,20,32,11,23,17,13,01,04,10,,,,1.64,0.98,1.31*01
$GPRMC,035943.000,A,3845.1154,N,00916.7377,W,0.02,199.58,120514,,,D*7D
$GPVTG,199.58,T,,M,0.02,N,0.03,K,D*35
$GPGGA,035944.000,3845.1155,N,00916.7375,W,2,9,0.98,155.0,M,50.7,M,0000,0000*4B
$GPGSA,A,3,20,32,11,23,17,13,01,04,10,,,,1.64,0.98,1.31*01
$GPRMC,035944.000,A,3845.1155,N,00916.7375,W,0.02,199.58,120514,,,D*79
$GPVTG,199.58,T,,M,0.02,N,0.03,K,D*35
$GPGGA,035945.000,3845.1156,N,00916.7374,W,2,9,0.98,154.9,M,50.7,M,0000,0000*40
$GPGSA,A,3,20,32,11,23,17,13,01,04,10,,,,1.64,0.98,1.31*01
$GPRMC,035945.000,A,3845.1156,N,00916.7374,W,0.02,199.58,120514,,,D*7A
$GPVTG,199.58,T,,M,0.02,N,0.03,K,D*35
$GPGGA,035946.000,3845.1157,N,00916.7373,W,2,9,0.98,154.7,M,50.7,M,0000,0000*4B
$GPGSA,A,3,20,32,11,23,17,13,01,04,10,,,,1.64,0.98,1.31*01
$GPGSV,3,1,11,23,70,086,37,13,57,179,47,17,52,248,37,20,48,058,18*7A
$GPGSV,3,2,11,33,44,189,39,04,37,310,19,01,33,120,44,10,21,266,38*71
$GPGSV,3,3,11,11,12,137,41,32,11,067,16,31,07,039,*42
$GPRMC,035946.000,A,3845.1157,N,00916.7373,W,0.02,199.58,120514,,,D*7F
$GPVTG,199.58,T,,M,0.02,N,0.03,K,D*35
$GPGGA,035947.000,3845.1158,N,00916.7372,W,2,9,0.98,154.6,M,50.7,M,0000,0000*45
$GPGSA,A,3,20,32,11,23,17,13,01,04,10,,,,1.64,0.98,1.31*01
$GPRMC,035947.000,A,3845.1158,N,00916.7372,W,0.02,199.58,120514,,,D*70
$GPVTG,199.58,T,,M,0.02,N,0.04,K,D*32
$GPGGA,035948.000,3845.1159,N,00916.7371,W,2,9,0.98,154.4,M,50.7,M,0000,0000*4A
$GPGSA,A,3,20,32,11,23,17,13,01,04,10,,,,1.64,0.98,1.31*01
$GPRMC,035948.000,A,3845.1159,N,00916.7371,W,0.02,199.58,120514,,,D*7D
$GPVTG,199.58,T,,M,0.02,N,0.03,K,D*35
$GPGGA,035949.000,3845.1160,N,00916.7370,W,2,9,0.98,154.2,M,50.7,M,0000,0000*46
$GPGSA,A,3,20,32,11,23,17,13,01,04,10,,,,1.64,0.98,1.31*01
$GPRMC,035949.000,A,3845.1160,N,00916.7370,W,0.02,199.58,120514,,,D*77
$GPVTG,199.58,T,,M,0.02,N,0.03,K,D*35
$GPGGA,035950.000,3845.1160,N,00916.7369,W,2,9,0.98,154.0,M,50.7,M,0000,0000*44
$GPGSA,A,3,20,32,11,23,17,13,01,04,10,,,,1.64,0.98,1.31*01
$GPRMC,035950.000,A,3845.1160,N,00916.7369,W,0.01,199.58,120514,,,D*74
$GPVTG,199.58,T,,M,0.01,N,0.02,K,D*37
$GPGGA,035951.000,3845.1161,N,00916.7368,W,2,9,0.98,153.8,M,50.7,M,0000,0000*4A
$GPGSA,A,3,20,32,11,23,17,13,01,04,10,,,,1.64,0.98,1.31*01
$GPGSV,3,1,11,23,70,086,38,13,57,179,47,17,52,248,37,20,48,058,17*7A
$GPGSV,3,2,11,33,44,189,39,04,37,310,18,01,33,120,44,10,21,267,39*70
$GPGSV,3,3,11,11,11,137,41,32,11,067,17,31,07,039,*40
$GPRMC,035951.000,A,3845.1161,N,00916.7368,W,0.01,199.58,120514,,,D*75
$GPVTG,199.58,T,,M,0.01,N,0.02,K,D*37
$GPGGA,035952.000,3845.1162,N,00916.7367,W,2,9,0.98,153.6,M,50.7,M,0000,0000*4B
$GPGSA,A,3,20,32,11,23,17,13,01,04,10,,,,1.64,0.98,1.31*01
$GPRMC,035952.000,A,3845.1162,N,00916.7367,W,0.01,199.58,120514,,,D*7A
$GPVTG,199.58,T,,M,0.01,N,0.02,K,D*37
$GPGGA,035953.000,3845.1163,N,00916.7367,W,2,9,0.98,153.5,M,50.7,M,0000,0000*48
$GPGSA,A,3,20,32,11,23,17,13,01,04,10,,,,1.64,0.98,1.31*01
$GPRMC,035953.000,A,3845.1163,N,00916.7367,W,0.01,199.58,120514,,,D*7A
$GPVTG,199.58,T,,M,0.01,N,0.02,K,D*37
$GPGGA,035954.000,3845.1163,N,00916.7367,W,2,9,0.98,153.3,M,50.7,M,0000,0000*49
$GPGSA,A,3,20,32,11,23,17,13,01,04,10,,,,1.64,0.98,1.31*01
$GPRMC,035954.000,A,3845.1163,N,00916.7367,W,0.01,199.58,120514,,,D*7D
$GPVTG,199.58,T,,M,0.01,N,0.02,K,D*37
$GPGGA,035955.000,3845.1165,N,00916.7366,W,2,9,0.98,153.1,M,50.7,M,0000,0000*4D
$GPGSA,A,3,20,32,11,23,17,13,01,04,10,,,,1.64,0.98,1.31*01
$GPRMC,035955.000,A,3845.1165,N,00916.7366,W,0.02,199.58,120514,,,D*78
$GPVTG,199.58,T,,M,0.02,N,0.03,K,D*35
$GPGGA,035956.000,3845.1166,N,00916.7366,W,2,9,0.98,153.0,M,50.7,M,0000,0000*4C
$GPGSA,A,3,20,32,11,23,17,13,01,04,10,,,,1.64,0.98,1.31*01
$GPGSV,3,1,11,23,70,086,38,13,58,179,47,17,52,248,37,20,48,058,17*75
$GPGSV,3,2,11,33,44,189,39,04,37,310,18,01,33,120,44,10,21,267,38*71
$GPGSV,3,3,11,11,11,137,41,32,11,067,17,31,07,039,*40
$GPRMC,035956.000,A,3845.1166,N,00916.7366,W,0.02,199.58,120514,,,D*78
$GPVTG,199.58,T,,M,0.02,N,0.03,K,D*35
$GPGGA,035957.000,3845.1167,N,00916.7365,W,2,9,0.98,152.8,M,50.7,M,0000,0000*46
$GPGSA,A,3,20,32,11,23,17,13,01,04,10,,,,1.64,0.98,1.31*01
$GPRMC,035957.000,A,3845.1167,N,00916.7365,W,0.02,199.58,120514,,,D*7B
$GPVTG,199.58,T,,M,0.02,N,0.04,K,D*32
$GPGGA,035958.000,3845.1168,N,00916.7365,W,2,9,0.98,152.6,M,50.7,M,0000,0000*48
$GPGSA,A,3,20,32,11,23,17,13,01,04,10,,,,1.64,0.98,1.31*01
$GPRMC,035958.000,A,3845.1168,N,00916.7365,W,0.02,199.58,120514,,,D*7B
$GPVTG,199.58,T,,M,0.02,N,0.03,K,D*35
$GPGGA,035959.000,3845.1168,N,00916.7365,W,2,9,0.98,152.5,M,50.7,M,0000,0000*4A
$GPGSA,A,3,20,32,11,23,17,13,01,04,10,,,,1.64,0.98,1.31*01
$GPRMC,035959.000,A,3845.1168,N,00916.7365,W,0.01,199.58,120514,,,D*79
$GPVTG,199.58,T,,M,0.01,N,0.03,K,D*36
$GPGGA,040000.000,3845.1169,N,00916.7364,W,2,9,0.98,152.3,M,50.7,M,0000,0000*4B
$GPGSA,A,3,20,32,11,23,17,13,01,04,10,,,,1.64,0.98,1.31*01
$GPRMC,040000.000,A,3845.1169,N,00916.7364,W,0.01,199.58,120514,,,D*7E
$GPVTG,199.58,T,,M,0.01,N,0.02,K,D*37
$GPGGA,040001.000,3845.1171,N,00916.7364,W,2,9,0.98,152.1,M,50.7,M,0000,0000*41
$GPGSA,A,3,20,32,11,23,17,13,01,04,10,,,,1.64,0.98,1.31*01
$GPGSV,3,1,11,23,70,086,37,13,58,179,47,17,52,248,37,20,48,059,17*7B
$GPGSV,3,2,11,33,44,189,38,04,37,310,20,01,33,120,44,10,21,267,39*7A
$GPGSV,3,3,11,11,11,137,41,32,11,067,16,31,07,039,*41
$GPRMC,040001.000,A,3845.1171,N,00916.7364,W,0.01,199.58,120514,,,D*76
$GPVTG,199.58,T,,M,0.01,N,0.02,K,D*37
$GPGGA,040002.000,3845.1171,N,00916.7363,W,2,9,0.98,152.0,M,50.7,M,0000,0000*44
$GPGSA,A,3,20,32,11,23,17,13,01,04,10,,,,1.64,0.98,1.31*01
$GPRMC,040002.000,A,3845.1171,N,00916.7363,W,0.01,199.58,120514,,,D*72
$GPVTG,199.58,T,,M,0.01,N,0.02,K,D*37
$GPGGA,040003.000,3845.1172,N,00916.7363,W,2,9,0.98,151.9,M,50.7,M,0000,0000*4C
$GPGSA,A,3,20,32,11,23,17,13,01,04,10,,,,1.64,0.98,1.31*01
$GPRMC,040003.000,A,3845.1172,N,00916.7363,W,0.01,199.58,120514,,,D*70
$GPVTG,199.58,T,,M,0.01,N,0.02,K,D*37
$GPGGA,040004.000,3845.1173,N,00916.7362,W,2,9,0.98,151.7,M,50.7,M,0000,0000*45
$GPGSA,A,3,20,32,11,23,17,13,01,04,10,,,,1.64,0.98,1.31*01
$GPRMC,040004.000,A,3845.1173,N,00916.7362,W,0.01,199.58,120514,,,D*77
$GPVTG,199.58,T,,M,0.01,N,0.01,K,D*34
$GPGGA,040005.000,3845.1173,N,00916.7361,W,2,9,0.98,151.6,M,50.7,M,0000,0000*46
$GPGSA,A,3,20,32,11,23,17,13,01,04,10,,,,1.64,0.98,1.31*01
$GPRMC,040005.000,A,3845.1173,N,00916.7361,W,0.01,199.58,120514,,,D*75
$GPVTG,199.58,T,,M,0.01,N,0.01,K,D*34
$GPGGA,040006.000,3845.1174,N,00916.7361,W,2,9,0.98,151.5,M,50.7,M,0000,0000*41
$GPGSA,A,3,20,32,11,23,17,13,01,04,10,,,,1.64,0.98,1.31*01
$GPGSV,3,1,11,23,70,085,37,13,58,179,47,17,52,248,38,20,48,059,19*79
$GPGSV,3,2,11,33,44,189,38,04,37,310,28,01,33,120,44,10,21,267,39*72
$GPGSV,3,3,11,11,11,137,41,32,11,067,16,31,07,039,*41
$GPRMC,040006.000,A,3845.1174,N,00916.7361,W,0.01,199.58,120514,,,D*71
$GPVTG,199.58,T,,M,0.01,N,0.01,K,D*34
$GPGGA,040007.000,3845.1174,N,00916.7360,W,2,9,0.98,151.4,M,50.7,M,0000,0000*40
$GPGSA,A,3,20,32,11,23,17,13,01,04,10,,,,1.64,0.98,1.31*01
$GPRMC,040007.000,A,3845.1174,N,00916.7360,W,0.00,199.58,120514,,,D*70
$GPVTG,199.58,T,,M,0.00,N,0.01,K,D*35
$GPGGA,040008.000,3845.1175,N,00916.7359,W,2,9,0.98,151.3,M,50.7,M,0000,0000*43
$GPGSA,A,3,20,32,11,23,17,13,01,04,10,,,,1.64,0.98,1.31*01
$GPRMC,040008.000,A,3845.1175,N,00916.7359,W,0.00,199.58,120514,,,D*74
$GPVTG,199.58,T,,M,0.00,N,0.01,K,D*35
$GPGGA,040009.000,3845.1175,N,00916.7359,W,2,9,0.98,151.2,M,50.7,M,0000,0000*43
$GPGSA,A,3,20,32,11,23,17,13,01,04,10,,,,1.64,0.98,1.31*01
$GPRMC,040009.000,A,3845.1175,N,00916.7359,W,0.00,199.58,120514,,,D*75
$GPVTG,199.58,T,,M,0.00,N,0.01,K,D*35
$GPGGA,040010.000,3845.1176,N,00916.7359,W,2,8,1.18,151.1,M,50.7,M,0000,0000*43
$GPGSA,A,3,20,11,23,17,13,01,04,10,,,,,1.98,1.18,1.60*0E
$GPRMC,040010.000,A,3845.1176,N,00916.7359,W,0.01,199.58,120514,,,D*7F
$GPVTG,199.58,T,,M,0.01,N,0.01,K,D*34
$GPGGA,040011.000,3845.1176,N,00916.7359,W,2,9,0.98,151.0,M,50.7,M,0000,0000*4B
$GPGSA,A,3,20,32,11,23,17,13,01,04,10,,,,1.64,0.98,1.31*01
$GPGSV,3,1,11,23,70,085,37,13,58,179,47,17,52,248,40,20,48,059,19*76
$GPGSV,3,2,11,33,44,189,38,04,37,310,30,01,33,120,44,10,21,267,39*7B
$GPGSV,3,3,11,11,11,137,41,32,11,067,16,31,07,039,*41
$GPRMC,040011.000,A,3845.1176,N,00916.7359,W,0.01,199.58,120514,,,D*7E
$GPVTG,199.58,T,,M,0.01,N,0.01,K,D*34
$GPGGA,040012.000,3845.1176,N,00916.7359,W,2,9,0.98,151.0,M,50.7,M,0000,0000*48
$GPGSA,A,3,20,32,11,23,17,13,01,04,10,,,,1.64,0.98,1.31*01
$GPRMC,040012.000,A,3845.1176,N,00916.7359,W,0.01,199.58,120514,,,D*7D
$GPVTG,199.58,T,,M,0.01,N,0.01,K,D*34
$GPGGA,040013.000,3845.1177,N,00916.7359,W,2,9,0.98,150.9,M,50.7,M,0000,0000*40
$GPGSA,A,3,20,32,11,23,17,13,01,04,10,,,,1.64,0.98,1.31*01
$GPRMC,040013.000,A,3845.1177,N,00916.7359,W,0.01,199.58,120514,,,D*7D
$GPVTG,199.58,T,,M,0.01,N,0.01,K,D*34
$GPGGA,040014.000,3845.1177,N,00916.7359,W,2,8,1.18,150.9,M,50.7,M,0000,0000*4F
$GPGSA,A,3,20,11,23,17,13,01,04,10,,,,,1.98,1.18,1.60*0E
$GPRMC,040014.000,A,3845.1177,N,00916.7359,W,0.01,199.58,120514,,,D*7A
$GPVTG,199.58,T,,M,0.01,N,0.02,K,D*37
$GPGGA,040015.000,3845.1177,N,00916.7359,W,2,8,1.18,150.8,M,50.7,M,0000,0000*4F
$GPGSA,A,3,20,11,23,17,13,01,04,10,,,,,1.98,1.18,1.60*0E
$GPRMC,040015.000,A,3845.1177,N,00916.7359,W,0.01,199.58,120514,,,D*7B
$GPVTG,199.58,T,,M,0.01,N,0.02,K,D*37
$GPGGA,040016.000,3845.1176,N,00916.7359,W,2,8,1.18,150.7,M,50.7,M,0000,0000*42
$GPGSA,A,3,20,11,23,17,13,01,04,10,,,,,1.98,1.18,1.60*0E
$GPGSV,3,1,11,23,70,085,37,13,58,179,46,17,52,248,40,20,48,059,18*76
$GPGSV,3,2,11,33,44,189,39,04,37,310,19,01,32,120,44,10,21,267,39*70
$GPGSV,3,3,11,11,11,137,41,32,11,067,16,31,07,039,*41
$GPRMC,040016.000,A,3845.1176,N,00916.7359,W,0.01,199.58,120514,,,D*79
$GPVTG,199.58,T,,M,0.01,N,0.02,K,D*37
$GPGGA,040017.000,3845.1177,N,00916.7358,W,2,8,1.18,150.7,M,50.7,M,0000,0000*43
$GPGSA,A,3,20,11,23,17,13,01,04,10,,,,,1.98,1.18,1.60*0E
$GPRMC,040017.000,A,3845.1177,N,00916.7358,W,0.01,199.58,120514,,,D*78
$GPVTG,199.58,T,,M,0.01,N,0.02,K,D*37
$GPGGA,040018.000,3845.1177,N,00916.7358,W,2,8,1.18,150.6,M,50.7,M,0000,0000*4D
$GPGSA,A,3,20,11,23,17,13,01,04,10,,,,,1.98,1.18,1.60*0E
$GPRMC,040018.000,A,3845.1177,N,00916.7358,W,0.01,199.58,120514,,,D*77
$GPVTG,199.58,T,,M,0.01,N,0.03,K,D*36
$GPGGA,040019.000,3845.1177,N,00916.7358,W,2,8,1.18,150.5,M,50.7,M,0000,0000*4F
$GPGSA,A,3,20,11,23,17,13,01,04,10,,,,,1.98,1.18,1.60*0E
$GPRMC,040019.000,A,3845.1177,N,00916.7358,W,0.02,199.58,120514,,,D*75
$GPVTG,199.58,T,,M,0.02,N,0.03,K,D*35
$GPGGA,040020.000,3845.1177,N,00916.7358,W,2,8,1.18,150.4,M,50.7,M,0000,0000*44
$GPGSA,A,3,20,11,23,17,13,01,04,10,,,,,1.98,1.18,1.60*0E
$GPRMC,040020.000,A,3845.1177,N,00916.7358,W,0.02,199.58,120514,,,D*7F
$GPVTG,199.58,T,,M,0.02,N,0.03,K,D*35
$GPGGA,040021.000,3845.1177,N,00916.7359,W,2,8,1.18,150.3,M,50.7,M,0000,0000*43
$GPGSA,A,3,20,11,23,17,13,01,04,10,,,,,1.98,1.18,1.59*04
$GPGSV,3,1,11,23,70,085,38,13,58,179,46,17,52,248,41,20,48,059,20*73
$GPGSV,3,2,11,33,44,189,39,04,37,310,24,01,32,120,45,10,21,267,39*7F
$GPGSV,3,3,11,11,11,137,41,32,11,067,14,31,07,039,*43
$GPRMC,040021.000,A,3845.1177,N,00916.7359,W,0.02,199.58,120514,,,D*7F
$GPVTG,199.58,T,,M,0.02,N,0.03,K,D*35
$GPGGA,040022.000,3845.1177,N,00916.7360,W,2,8,1.18,150.3,M,50.7,M,0000,0000*4A
$GPGSA,A,3,20,11,23,17,13,01,04,10,,,,,1.98,1.18,1.60*0E
$GPRMC,040022.000,A,3845.1177,N,00916.7360,W,0.02,199.58,120514,,,D*76
$GPVTG,199.58,T,,M,0.02,N,0.03,K,D*35
$GPGGA,040023.000,3845.1176,N,00916.7361,W,2,9,0.98,150.4,M,50.7,M,0000,0000*44
$GPGSA,A,3,20,32,11,23,17,13,01,04,10,,,,1.64,0.98,1.31*01
$GPRMC,040023.000,A,3845.1176,N,00916.7361,W,0.01,199.58,120514,,,D*74
$GPVTG,199.58,T,,M,0.01,N,0.03,K,D*36
$GPGGA,040024.000,3845.1175,N,00916.7362,W,2,9,0.98,150.4,M,50.7,M,0000,0000*43
$GPGSA,A,3,20,32,11,23,17,13,01,04,10,,,,1.64,0.98,1.31*01
$GPRMC,040024.000,A,3845.1175,N,00916.7362,W,0.01,199.58,120514,,,D*73
$GPVTG,199.58,T,,M,0.01,N,0.02,K,D*37
$GPGGA,040025.000,3845.1173,N,00916.7363,W,2,9,0.98,150.5,M,50.7,M,0000,0000*44
$GPGSA,A,3,20,32,11,23,17,13,01,04,10,,,,1.64,0.98,1.31*01
$GPRMC,040025.000,A,3845.1173,N,00916.7363,W,0.01,199.58,120514,,,D*75
$GPVTG,199.58,T,,M,0.01,N,0.02,K,D*37
$GPGGA,040026.000,3845.1172,N,00916.7364,W,2,9,0.98,150.6,M,50.7,M,0000,0000*42
$GPGSA,A,3,20,32,11,23,17,13,01,04,10,,,,1.64,0.98,1.31*01
$GPGSV,3,1,11,23,70,085,38,13,58,179,45,17,52,248,41,20,48,059,18*7B
$GPGSV,3,2,11,33,44,189,39,04,37,310,24,01,32,120,46,10,22,267,38*7E
$GPGSV,3,3,11,11,11,138,42,32,11,067,18,31,07,039,*43
$GPRMC,040026.000,A,3845.1172,N,00916.7364,W,0.01,199.58,120514,,,D*70
$GPVTG,199.58,T,,M,0.01,N,0.02,K,D*37
$GPGGA,040027.000,3845.1171,N,00916.7366,W,2,8,1.18,150.6,M,50.7,M,0000,0000*4A
$GPGSA,A,3,20,11,23,17,13,01,04,10,,,,,1.98,1.18,1.59*04
$GPRMC,040027.000,A,3845.1171,N,00916.7366,W,0.01,199.58,120514,,,D*70
$GPVTG,199.58,T,,M,0.01,N,0.02,K,D*37
$GPGGA,040028.000,3845.1170,N,00916.7367,W,2,9,0.98,150.7,M,50.7,M,0000,0000*4C
$GPGSA,A,3,20,32,11,23,17,13,01,04,10,,,,1.64,0.98,1.31*01
$GPRMC,040028.000,A,3845.1170,N,00916.7367,W,0.01,199.58,120514,,,D*7F
$GPVTG,199.58,T,,M,0.01,N,0.02,K,D*37
$GPGGA,040029.000,3845.1169,N,00916.7368,W,2,8,1.18,150.7,M,50.7,M,0000,0000*42
$GPGSA,A,3,20,11,23,17,13,01,04,10,,,,,1.98,1.18,1.59*04
$GPRMC,040029.000,A,3845.1169,N,00916.7368,W,0.01,199.58,120514,,,D*79
$GPVTG,199.58,T,,M,0.01,N,0.01,K,D*34
$GPGGA,040030.000,3845.1167,N,00916.7369,W,2,9,0.98,150.8,M,50.7,M,0000,0000*42
$GPGSA,A,3,20,32,11,23,17,13,01,04,10,,,,1.64,0.98,1.31*01
$GPRMC,040030.000,A,3845.1167,N,00916.7369,W,0.01,199.58,120514,,,D*7E
$GPVTG,199.58,T,,M,0.01,N,0.01,K,D*34
$GPGGA,040031.000,3845.1166,N,00916.7371,W,2,8,1.18,150.9,M,50.7,M,0000,0000*42
$GPGSA,A,3,20,11,23,17,13,01,04,10,,,,,1.98,1.18,1.60*0E
$GPGSV,3,1,11,23,70,085,39,13,58,179,44,17,52,247,41,20,48,059,19*75
$GPGSV,3,2,11,33,44,189,39,04,37,310,24,01,32,120,47,10,22,267,38*7F
$GPGSV,3,3,11,11,11,138,42,32,11,067,17,31,07,039,*4C
$GPRMC,040031.000,A,3845.1166,N,00916.7371,W,0.00,199.58,120514,,,D*76
$GPVTG,199.58,T,,M,0.00,N,0.01,K,D*35
$GPGGA,040032.000,3845.1164,N,00916.7373,W,2,8,1.18,150.9,M,50.7,M,0000,0000*41
$GPGSA,A,3,20,11,23,17,13,01,04,10,,,,,1.98,1.18,1.59*04
$GPRMC,040032.000,A,3845.1164,N,00916.7373,W,0.00,199.58,120514,,,D*75
$GPVTG,199.58,T,,M,0.00,N,0.00,K,D*34
$GPGGA,040033.000,3845.1162,N,00916.7374,W,2,8,1.18,150.9,M,50.7,M,0000,0000*41
$GPGSA,A,3,20,11,23,17,13,01,04,10,,,,,1.98,1.18,1.60*0E
$GPRMC,040033.000,A,3845.1162,N,00916.7374,W,0.00,199.58,120514,,,D*75
$GPVTG,199.58,T,,M,0.00,N,0.00,K,D*34
$GPGGA,040034.000,3845.1161,N,00916.7376,W,2,8,1.18,151.0,M,50.7,M,0000,0000*4F
$GPGSA,A,3,20,11,23,17,13,01,04,10,,,,,1.98,1.18,1.59*04
$GPRMC,040034.000,A,3845.1161,N,00916.7376,W,0.00,199.58,120514,,,D*73
$GPVTG,199.58,T,,M,0.00,N,0.00,K,D*34
$GPGGA,040035.000,3845.1159,N,00916.7377,W,2,8,1.18,150.9,M,50.7,M,0000,0000*4C
$GPGSA,A,3,20,11,23,17,13,01,04,10,,,,,1.98,1.18,1.59*04
$GPRMC,040035.000,A,3845.1159,N,00916.7377,W,0.31,199.58,120514,,,D*7A
$GPVTG,199.58,T,,M,0.31,N,0.57,K,D*34
$GPGGA,040036.000,3845.1151,N,00916.7380,W,2,8,1.18,152.0,M,50.7,M,0000,0000*44
$GPGSA,A,3,20,11,23,17,13,01,04,10,,,,,1.98,1.18,1.60*0E
$GPGSV,3,1,11,23,70,085,40,13,58,179,44,17,52,247,41,20,47,059,16*7B
$GPGSV,3,2,11,33,44,189,38,04,37,310,20,01,32,120,47,10,22,267,38*7A
$GPGSV,3,3,11,11,11,138,42,32,11,067,15,31,07,039,*4E
$GPRMC,040036.000,A,3845.1151,N,00916.7380,W,0.73,199.58,120514,,,D*7F
$GPVTG,199.58,T,,M,0.73,N,1.36,K,D*34
$GPGGA,040037.000,3845.1144,N,00916.7382,W,2,8,1.18,152.9,M,50.7,M,0000,0000*4A
$GPGSA,A,3,20,11,23,17,13,01,04,10,,,,,1.98,1.18,1.60*0E
$GPRMC,040037.000,A,3845.1144,N,00916.7382,W,0.99,199.58,120514,,,D*7C
$GPVTG,199.58,T,,M,0.99,N,1.84,K,D*39
$GPGGA,040038.000,3845.1142,N,00916.7384,W,2,8,1.14,153.2,M,50.7,M,0000,0000*43
$GPGSA,A,3,20,11,23,17,13,01,04,10,,,,,1.42,1.14,0.85*0F
$GPRMC,040038.000,A,3845.1142,N,00916.7384,W,0.61,189.16,120514,,,D*7F
$GPVTG,189.16,T,,M,0.61,N,1.13,K,D*3B
$GPGGA,040039.000,3845.1140,N,00916.7385,W,2,8,1.14,153.2,M,50.7,M,0000,0000*41
$GPGSA,A,3,20,11,23,17,13,01,04,10,,,,,1.42,1.14,0.85*0F
$GPRMC,040039.000,A,3845.1140,N,00916.7385,W,0.02,189.16,120514,,,D*78
$GPVTG,189.16,T,,M,0.02,N,0.03,K,D*3E
$GPGGA,040040.000,3845.1139,N,00916.7386,W,2,8,1.14,153.2,M,50.7,M,0000,0000*42
$GPGSA,A,3,20,11,23,17,13,01,04,10,,,,,1.42,1.14,0.85*0F
$GPRMC,040040.000,A,3845.1139,N,00916.7386,W,0.04,189.16,120514,,,D*7D
$GPVTG,189.16,T,,M,0.04,N,0.07,K,D*3C
$GPGGA,040041.000,3845.1138,N,00916.7387,W,2,8,1.14,153.2,M,50.7,M,0000,0000*43
$GPGSA,A,3,20,11,23,17,13,01,04,10,,,,,1.42,1.14,0.85*0F
$GPGSV,3,1,11,23,70,084,40,13,58,179,45,17,52,247,41,20,47,059,14*79
$GPGSV,3,2,11,33,44,189,39,04,37,310,17,01,32,120,47,10,22,267,38*7F
$GPGSV,3,3,11,11,11,138,42,32,11,067,16,31,07,039,*4D
$GPRMC,040041.000,A,3845.1138,N,00916.7387,W,0.09,189.16,120514,,,D*71
$GPVTG,189.16,T,,M,0.09,N,0.16,K,D*31
$GPGGA,040042.000,3845.1137,N,00916.7389,W,2,8,1.18,153.2,M,50.7,M,0000,0000*4D
$GPGSA,A,3,20,11,23,17,13,01,04,10,,,,,1.98,1.18,1.59*04
$GPRMC,040042.000,A,3845.1137,N,00916.7389,W,0.15,189.16,120514,,,D*7E
$GPVTG,189.16,T,,M,0.15,N,0.28,K,D*31
$GPGGA,040043.000,3845.1136,N,00916.7390,W,2,8,1.18,153.1,M,50.7,M,0000,0000*46
$GPGSA,A,3,20,11,23,17,13,01,04,10,,,,,1.98,1.18,1.59*04
$GPRMC,040043.000,A,3845.1136,N,00916.7390,W,0.22,189.16,120514,,,D*72
$GPVTG,189.16,T,,M,0.22,N,0.41,K,D*3A
$GPGGA,040044.000,3845.1136,N,00916.7391,W,2,8,1.18,153.0,M,50.7,M,0000,0000*41
$GPGSA,A,3,20,11,23,17,13,01,04,10,,,,,1.98,1.18,1.59*04
$GPRMC,040044.000,A,3845.1136,N,00916.7391,W,0.39,5.79,120514,,,D*72
$GPVTG,5.79,T,,M,0.39,N,0.72,K,D*3C
$GPGGA,040045.000,3845.1136,N,00916.7391,W,2,8,1.18,152.9,M,50.7,M,0000,0000*48
$GPGSA,A,3,20,11,23,17,13,01,04,10,,,,,1.98,1.18,1.59*04
$GPRMC,040045.000,A,3845.1136,N,00916.7391,W,0.10,5.79,120514,,,D*78
$GPVTG,5.79,T,,M,0.10,N,0.18,K,D*3B
$GPGGA,040046.000,3845.1136,N,00916.7392,W,2,8,1.14,152.8,M,50.7,M,0000,0000*45
$GPGSA,A,3,20,11,23,17,13,01,04,10,,,,,1.42,1.14,0.85*0F
$GPGSV,3,1,11,23,70,084,39,13,58,179,45,17,52,247,43,20,47,059,17*76
$GPGSV,3,2,11,33,44,189,39,04,37,310,17,01,32,120,47,10,22,267,38*7F
$GPGSV,3,3,11,11,11,138,42,32,11,067,18,31,07,039,*43
$GPRMC,040046.000,A,3845.1136,N,00916.7392,W,0.06,5.79,120514,,,D*7F
$GPVTG,5.79,T,,M,0.06,N,0.11,K,D*35
$GPGGA,040047.000,3845.1135,N,00916.7393,W,2,8,1.14,152.8,M,50.7,M,0000,0000*46
$GPGSA,A,3,20,11,23,17,13,01,04,10,,,,,1.42,1.14,0.85*0F
$GPRMC,040047.000,A,3845.1135,N,00916.7393,W,0.05,5.79,120514,,,D*7F
$GPVTG,5.79,T,,M,0.05,N,0.09,K,D*3F
$GPGGA,040048.000,3845.1135,N,00916.7393,W,2,8,1.14,152.7,M,50.7,M,0000,0000*46
$GPGSA,A,3,20,11,23,17,13,01,04,10,,,,,1.42,1.14,0.85*0F
$GPRMC,040048.000,A,3845.1135,N,00916.7393,W,0.08,5.79,120514,,,D*7D
$GPVTG,5.79,T,,M,0.08,N,0.15,K,D*3F
$GPGGA,040049.000,3845.1134,N,00916.7394,W,2,8,1.14,152.7,M,50.7,M,0000,0000*41
$GPGSA,A,3,20,11,23,17,13,01,04,10,,,,,1.42,1.14,0.85*0F
$GPRMC,040049.000,A,3845.1134,N,00916.7394,W,0.26,5.79,120514,,,D*76
$GPVTG,5.79,T,,M,0.26,N,0.47,K,D*34
$GPGGA,040050.000,3845.1134,N,00916.7394,W,2,8,1.14,152.6,M,50.7,M,0000,0000*48
$GPGSA,A,3,20,11,23,17,13,01,04,10,,,,,1.42,1.14,0.85*0F
$GPRMC,040050.000,A,3845.1134,N,00916.7394,W,0.26,5.79,120514,,,D*7E
$GPVTG,5.79,T,,M,0.26,N,0.48,K,D*3B
$GPGGA,040051.000,3845.1134,N,00916.7395,W,2,8,1.18,152.6,M,50.7,M,0000,0000*44
$GPGSA,A,3,20,11,23,17,13,01,04,10,,,,,1.98,1.18,1.59*04
$GPGSV,3,1,11,23,70,084,40,13,58,179,45,17,52,247,43,20,47,059,18*77
$GPGSV,3,2,11,33,44,189,39,04,37,310,16,01,32,120,47,10,22,267,39*7F
$GPGSV,3,3,11,11,11,138,42,32,11,067,15,31,07,039,*4E
$GPRMC,040051.000,A,3845.1134,N,00916.7395,W,0.19,5.79,120514,,,D*72
$GPVTG,5.79,T,,M,0.19,N,0.35,K,D*3D
$GPGGA,040052.000,3845.1133,N,00916.7395,W,2,8,1.14,152.5,M,50.7,M,0000,0000*4F
$GPGSA,A,3,20,11,23,17,13,01,04,10,,,,,1.42,1.14,0.85*0F
$GPRMC,040052.000,A,3845.1133,N,00916.7395,W,0.02,5.79,120514,,,D*7C
$GPVTG,5.79,T,,M,0.02,N,0.03,K,D*32
$GPGGA,040053.000,3845.1132,N,00916.7395,W,2,8,1.18,152.4,M,50.7,M,0000,0000*42
$GPGSA,A,3,20,11,23,17,13,01,04,10,,,,,1.98,1.18,1.59*04
$GPRMC,040053.000,A,3845.1132,N,00916.7395,W,0.01,5.79,120514,,,D*7F
$GPVTG,5.79,T,,M,0.01,N,0.03,K,D*31
$GPGGA,040054.000,3845.1130,N,00916.7396,W,2,8,1.18,152.4,M,50.7,M,0000,0000*44
$GPGSA,A,3,20,11,23,17,13,01,04,10,,,,,1.98,1.18,1.59*04
$GPRMC,040054.000,A,3845.1130,N,00916.7396,W,0.06,5.79,120514,,,D*7E
$GPVTG,5.79,T,,M,0.06,N,0.12,K,D*36
$GPGGA,040055.000,3845.1130,N,00916.7396,W,2,8,1.18,152.3,M,50.7,M,0000,0000*42
$GPGSA,A,3,20,11,23,17,13,01,04,10,,,,,1.98,1.18,1.59*04
$GPRMC,040055.000,A,3845.1130,N,00916.7396,W,0.04,5.79,120514,,,D*7D
$GPVTG,5.79,T,,M,0.04,N,0.07,K,D*30
$GPGGA,040056.000,3845.1129,N,00916.7397,W,2,8,1.18,152.3,M,50.7,M,0000,0000*48
$GPGSA,A,3,20,11,23,17,13,01,04,10,,,,,1.98,1.18,1.59*04
$GPGSV,3,1,11,23,70,084,40,13,58,179,45,17,52,247,45,20,47,059,22*78
$GPGSV,3,2,11,33,44,189,38,04,37,310,20,01,32,120,47,10,22,267,39*7B
$GPGSV,3,3,11,11,11,138,42,32,11,067,18,31,07,039,*43
$GPRMC,040056.000,A,3845.1129,N,00916.7397,W,0.03,5.79,120514,,,D*70
$GPVTG,5.79,T,,M,0.03,N,0.05,K,D*35
$GPGGA,040057.000,3845.1128,N,00916.7397,W,2,8,1.18,152.1,M,50.7,M,0000,0000*4A
$GPGSA,A,3,20,11,23,17,13,01,04,10,,,,,1.98,1.18,1.59*04
$GPRMC,040057.000,A,3845.1128,N,00916.7397,W,0.02,5.79,120514,,,D*71
$GPVTG,5.79,T,,M,0.02,N,0.04,K,D*35
$GPGGA,040058.000,3845.1128,N,00916.7397,W,2,8,1.18,152.0,M,50.7,M,0000,0000*44
$GPGSA,A,3,20,11,23,17,13,01,04,10,,,,,1.98,1.18,1.59*04
$GPRMC,040058.000,A,3845.1128,N,00916.7397,W,0.02,5.79,120514,,,D*7E
$GPVTG,5.79,T,,M,0.02,N,0.05,K,D*34
$GPGGA,040059.000,3845.1127,N,00916.7397,W,2,8,1.18,152.0,M,50.7,M,0000,0000*4A
$GPGSA,A,3,20,11,23,17,13,01,04,10,,,,,1.98,1.18,1.59*04
$GPRMC,040059.000,A,3845.1127,N,00916.7397,W,0.01,5.79,120514,,,D*73
$GPVTG,5.79,T,,M,0.01,N,0.02,K,D*30
$GPGGA,040100.000,3845.1127,N,00916.7397,W,2,8,1.18,151.9,M,50.7,M,0000,0000*4D
$GPGSA,A,3,20,11,23,17,13,01,04,10,,,,,1.98,1.18,1.59*04
$GPRMC,040100.000,A,3845.1127,N,00916.7397,W,0.01,5.79,120514,,,D*7E
$GPVTG,5.79,T,,M,0.01,N,0.02,K,D*30
$GPGGA,040101.000,3845.1126,N,00916.7398,W,2,8,1.18,151.8,M,50.7,M,0000,0000*43
$GPGSA,A,3,20,11,23,17,13,01,04,10,,,,,1.98,1.18,1.59*04
$GPGSV,3,1,11,23,70,084,40,13,58,179,45,17,52,247,45,20,47,059,21*7B
$GPGSV,3,2,11,33,44,189,39,04,37,310,19,01,32,120,47,10,22,267,39*70
$GPGSV,3,3,11,11,11,138,42,32,11,067,18,31,07,039,*43
$GPRMC,040101.000,A,3845.1126,N,00916.7398,W,0.01,5.79,120514,,,D*71
$GPVTG,5.79,T,,M,0.01,N,0.01,K,D*33
$GPGGA,040102.000,3845.1126,N,00916.7398,W,2,8,1.18,151.8,M,50.7,M,0000,0000*40
$GPGSA,A,3,20,11,23,17,13,01,04,10,,,,,1.98,1.18,1.59*04
$GPRMC,040102.000,A,3845.1126,N,00916.7398,W,0.01,5.79,120514,,,D*72
$GPVTG,5.79,T,,M,0.01,N,0.01,K,D*33
$GPGGA,040103.000,3845.1125,N,00916.7398,W,2,8,1.18,151.7,M,50.7,M,0000,0000*4D
$GPGSA,A,3,20,11,23,17,13,01,04,10,,,,,1.98,1.18,1.59*04
$GPRMC,040103.000,A,3845.1125,N,00916.7398,W,0.01,5.79,120514,,,D*70
$GPVTG,5.79,T,,M,0.01,N,0.02,K,D*30
$GPGGA,040104.000,3845.1125,N,00916.7398,W,2,8,1.18,151.7,M,50.7,M,0000,0000*4A
$GPGSA,A,3,20,11,23,17,13,01,04,10,,,,,1.98,1.18,1.59*04
$GPRMC,040104.000,A,3845.1125,N,00916.7398,W,0.01,5.79,120514,,,D*77
$GPVTG,5.79,T,,M,0.01,N,0.02,K,D*30
$GPGGA,040105.000,3845.1125,N,00916.7398,W,2,8,1.18,151.7,M,50.7,M,0000,0000*4B
$GPGSA,A,3,20,11,23,17,13,01,04,10,,,,,1.98,1.18,1.59*04
$GPRMC,040105.000,A,3845.1125,N,00916.7398,W,0.01,5.79,120514,,,D*76
$GPVTG,5.79,T,,M,0.01,N,0.02,K,D*30
$GPGGA,040106.000,3845.1125,N,00916.7398,W,2,8,1.18,151.6,M,50.7,M,0000,0000*49
$GPGSA,A,3,20,11,23,17,13,01,04,10,,,,,1.98,1.18,1.59*04
$GPGSV,3,1,11,23,70,084,39,13,58,179,45,17,52,247,46,20,47,059,16*72
$GPGSV,3,2,11,33,44,189,38,04,37,310,27,01,32,120,47,10,22,267,40*72
$GPGSV,3,3,11,11,11,138,42,32,11,067,16,31,07,039,*4D
$GPRMC,040106.000,A,3845.1125,N,00916.7398,W,0.01,5.79,120514,,,D*75
$GPVTG,5.79,T,,M,0.01,N,0.02,K,D*30
$GPGGA,040107.000,3845.1125,N,00916.7398,W,2,8,1.18,151.6,M,50.7,M,0000,0000*48
$GPGSA,A,3,20,11,23,17,13,01,04,10,,,,,1.98,1.18,1.59*04
$GPRMC,040107.000,A,3845.1125,N,00916.7398,W,0.01,5.79,120514,,,D*74
$GPVTG,5.79,T,,M,0.01,N,0.02,K,D*30
$GPGGA,040108.000,3845.1125,N,00916.7398,W,2,8,1.18,151.5,M,50.7,M,0000,0000*44
$GPGSA,A,3,20,11,23,17,13,01,04,10,,,,,1.98,1.18,1.59*04
$GPRMC,040108.000,A,3845.1125,N,00916.7398,W,0.01,5.79,120514,,,D*7B
$GPVTG,5.79,T,,M,0.01,N,0.02,K,D*30
$GPGGA,040109.000,3845.1125,N,00916.7398,W,2,8,1.18,151.4,M,50.7,M,0000,0000*44
$GPGSA,A,3,20,11,23,17,13,01,04,10,,,,,1.98,1.18,1.59*04
$GPRMC,040109.000,A,3845.1125,N,00916.7398,W,0.01,5.79,120514,,,D*7A
$GPVTG,5.79,T,,M,0.01,N,0.02,K,D*30
$GPGGA,040110.000,3845.1125,N,00916.7398,W,2,8,1.18,151.3,M,50.7,M,0000,0000*4B
$GPGSA,A,3,20,11,23,17,13,01,04,10,,,,,1.98,1.18,1.59*04
$GPRMC,040110.000,A,3845.1125,N,00916.7398,W,0.02,5.79,120514,,,D*71
$GPVTG,5.79,T,,M,0.02,N,0.04,K,D*35
$GPGGA,040111.000,3845.1125,N,00916.7398,W,2,8,1.18,151.3,M,50.7,M,0000,0000*4A
$GPGSA,A,3,20,11,23,17,13,01,04,10,,,,,1.98,1.18,1.59*04
$GPGSV,3,1,11,23,70,084,39,13,58,179,45,17,52,247,46,20,47,059,18*7C
$GPGSV,3,2,11,33,44,189,38,04,37,310,23,01,32,120,47,10,22,267,41*77
$GPGSV,3,3,11,11,11,138,42,32,11,067,13,31,07,039,*48
$GPRMC,040111.000,A,3845.1125,N,00916.7398,W,0.02,5.79,120514,,,D*70
$GPVTG,5.79,T,,M,0.02,N,0.04,K,D*35
$GPGGA,040112.000,3845.1125,N,00916.7398,W,2,8,1.18,151.2,M,50.7,M,0000,0000*48
$GPGSA,A,3,20,11,23,17,13,01,04,10,,,,,1.98,1.18,1.59*04
$GPRMC,040112.000,A,3845.1125,N,00916.7398,W,0.02,5.79,120514,,,D*73
$GPVTG,5.79,T,,M,0.02,N,0.04,K,D*35
$GPGGA,040113.000,3845.1125,N,00916.7398,W,2,8,1.18,151.2,M,50.7,M,0000,0000*49
$GPGSA,A,3,20,11,23,17,13,01,04,10,,,,,1.98,1.18,1.59*04
$GPRMC,040113.000,A,3845.1125,N,00916.7398,W,0.02,5.79,120514,,,D*72
$GPVTG,5.79,T,,M,0.02,N,0.04,K,D*35
$GPGGA,040114.000,3845.1124,N,00916.7398,W,2,8,1.18,151.2,M,50.7,M,0000,0000*4F
$GPGSA,A,3,20,11,23,17,13,01,04,10,,,,,1.98,1.18,1.59*04
$GPRMC,040114.000,A,3845.1124,N,00916.7398,W,0.02,5.79,120514,,,D*74
$GPVTG,5.79,T,,M,0.02,N,0.04,K,D*35
$GPGGA,040115.000,3845.1124,N,00916.7398,W,2,8,1.18,151.2,M,50.7,M,0000,0000*4E
$GPGSA,A,3,20,11,23,17,13,01,04,10,,,,,1.98,1.18,1.59*04
$GPRMC,040115.000,A,3845.1124,N,00916.7398,W,0.02,5.79,120514,,,D*75
$GPVTG,5.79,T,,M,0.02,N,0.03,K,D*32
$GPGGA,040116.000,3845.1124,N,00916.7398,W,2,8,1.18,151.1,M,50.7,M,0000,0000*4E
$GPGSA,A,3,20,11,23,17,13,01,04,10,,,,,1.98,1.18,1.59*04
$GPGSV,3,1,11,23,70,083,39,13,58,179,45,17,52,247,46,20,47,059,21*71
$GPGSV,3,2,11,33,44,189,38,04,37,310,18,01,32,120,47,10,22,267,41*7F
$GPGSV,3,3,11,11,11,138,42,32,11,067,17,31,07,039,*4C
$GPRMC,040116.000,A,3845.1124,N,00916.7398,W,0.01,5.79,120514,,,D*75
$GPVTG,5.79,T,,M,0.01,N,0.03,K,D*31
$GPGGA,040117.000,3845.1124,N,00916.7398,W,2,8,1.18,151.1,M,50.7,M,0000,0000*4F
$GPGSA,A,3,20,11,23,17,13,01,04,10,,,,,1.98,1.18,1.59*04
$GPRMC,040117.000,A,3845.1124,N,00916.7398,W,0.02,5.79,120514,,,D*77
$GPVTG,5.79,T,,M,0.02,N,0.03,K,D*32
$GPGGA,040118.000,3845.1124,N,00916.7398,W,2,8,1.18,151.1,M,50.7,M,0000,0000*40
$GPGSA,A,3,20,11,23,17,13,01,04,10,,,,,1.98,1.18,1.59*04
$GPRMC,040118.000,A,3845.1124,N,00916.7398,W,0.31,5.79,120514,,,D*78
$GPVTG,5.79,T,,M,0.31,N,0.58,K,D*3C
$GPGGA,040119.000,3845.1125,N,00916.7398,W,2,8,1.18,151.1,M,50.7,M,0000,0000*40
$GPGSA,A,3,20,11,23,17,13,01,04,10,,,,,1.98,1.18,1.59*04
$GPRMC,040119.000,A,3845.1125,N,00916.7398,W,0.34,5.79,120514,,,D*7D
$GPVTG,5.79,T,,M,0.34,N,0.63,K,D*31
$GPGGA,040120.000,3845.1125,N,00916.7398,W,2,8,1.18,150.9,M,50.7,M,0000,0000*43
$GPGSA,A,3,20,11,23,17,13,01,04,10,,,,,1.98,1.18,1.59*04
$GPRMC,040120.000,A,3845.1125,N,00916.7398,W,0.32,6.28,120514,,,D*76
$GPVTG,6.28,T,,M,0.32,N,0.60,K,D*33
$GPGGA,040121.000,3845.1126,N,00916.7398,W,2,7,1.51,150.8,M,50.7,M,0000,0000*42
$GPGSA,A,3,11,23,17,13,01,04,10,,,,,,2.20,1.51,1.59*0B
$GPGSV,3,1,11,23,70,083,37,13,58,179,45,17,52,247,47,20,47,059,23*7C
$GPGSV,3,2,11,33,44,189,38,04,37,310,18,01,32,120,47,10,22,267,41*7F
$GPGSV,3,3,11,11,11,138,41,32,10,068,18,31,07,039,*4E
$GPRMC,040121.000,A,3845.1126,N,00916.7398,W,0.26,6.28,120514,,,D*71
$GPVTG,6.28,T,,M,0.26,N,0.47,K,D*33
$GPGGA,040122.000,3845.1127,N,00916.7398,W,2,7,1.51,150.7,M,50.7,M,0000,0000*4F
$GPGSA,A,3,11,23,17,13,01,04,10,,,,,,2.20,1.51,1.60*01
$GPRMC,040122.000,A,3845.1127,N,00916.7398,W,0.16,6.28,120514,,,D*70
$GPVTG,6.28,T,,M,0.16,N,0.29,K,D*38
$GPGGA,040123.000,3845.1128,N,00916.7398,W,2,7,1.51,150.6,M,50.7,M,0000,0000*40
$GPGSA,A,3,11,23,17,13,01,04,10,,,,,,2.20,1.51,1.60*01
$GPRMC,040123.000,A,3845.1128,N,00916.7398,W,0.10,6.28,120514,,,D*78
$GPVTG,6.28,T,,M,0.10,N,0.19,K,D*3D
$GPGGA,040124.000,3845.1128,N,00916.7398,W,2,8,1.18,150.5,M,50.7,M,0000,0000*46
$GPGSA,A,3,20,11,23,17,13,01,04,10,,,,,1.98,1.18,1.59*04
$GPRMC,040124.000,A,3845.1128,N,00916.7398,W,0.08,6.28,120514,,,D*76
$GPVTG,6.28,T,,M,0.08,N,0.15,K,D*38
$GPGGA,040125.000,3845.1129,N,00916.7397,W,2,8,1.18,150.3,M,50.7,M,0000,0000*4F
$GPGSA,A,3,20,11,23,17,13,01,04,10,,,,,1.98,1.18,1.59*04
$GPRMC,040125.000,A,3845.1129,N,00916.7397,W,0.07,6.28,120514,,,D*76
$GPVTG,6.28,T,,M,0.07,N,0.13,K,D*31
$GPGGA,040126.000,3845.1129,N,00916.7397,W,2,7,1.51,150.3,M,50.7,M,0000,0000*4E
$GPGSA,A,3,11,23,17,13,01,04,10,,,,,,2.20,1.51,1.60*01
$GPGSV,3,1,11,23,70,083,36,13,58,179,45,17,52,247,47,20,47,059,24*7A
$GPGSV,3,2,11,33,44,189,38,04,37,310,20,01,32,120,46,10,22,267,41*75
$GPGSV,3,3,11,11,11,138,41,32,10,068,18,31,07,039,*4E
$GPRMC,040126.000,A,3845.1129,N,00916.7397,W,0.06,6.28,120514,,,D*74
$GPVTG,6.28,T,,M,0.06,N,0.11,K,D*32
$GPGGA,040127.000,3845.1129,N,00916.7397,W,2,8,1.18,150.8,M,50.7,M,0000,0000*46
$GPGSA,A,3,20,11,23,17,13,01,04,10,,,,,1.98,1.18,1.59*04
$GPRMC,040127.000,A,3845.1129,N,00916.7397,W,0.04,6.28,120514,,,D*77
$GPVTG,6.28,T,,M,0.04,N,0.08,K,D*38
$GPGGA,040128.000,3845.1129,N,00916.7397,W,2,8,1.18,150.8,M,50.7,M,0000,0000*49
$GPGSA,A,3,20,11,23,17,13,01,04,10,,,,,1.98,1.18,1.59*04
$GPRMC,040128.000,A,3845.1129,N,00916.7397,W,0.03,6.28,120514,,,D*7F
$GPVTG,6.28,T,,M,0.03,N,0.05,K,D*32
$GPGGA,040129.000,3845.1130,N,00916.7396,W,2,8,1.18,150.7,M,50.7,M,0000,0000*4E
$GPGSA,A,3,20,11,23,17,13,01,04,10,,,,,1.98,1.18,1.59*04
$GPRMC,040129.000,A,3845.1130,N,00916.7396,W,0.02,6.28,120514,,,D*76
$GPVTG,6.28,T,,M,0.02,N,0.03,K,D*35
$GPGGA,040130.000,3845.1131,N,00916.7396,W,2,7,1.51,150.7,M,50.7,M,0000,0000*45
$GPGSA,A,3,11,23,17,13,01,04,10,,,,,,2.20,1.51,1.59*0B
$GPRMC,040130.000,A,3845.1131,N,00916.7396,W,0.01,6.28,120514,,,D*7C
$GPVTG,6.28,T,,M,0.01,N,0.02,K,D*37
$GPGGA,040131.000,3845.1131,N,00916.7396,W,2,8,1.18,150.6,M,50.7,M,0000,0000*47
$GPGSA,A,3,20,11,23,17,13,01,04,10,,,,,1.98,1.18,1.59*04
$GPGSV,3,1,11,23,70,083,36,13,58,179,45,17,52,247,47,20,47,059,25*7B
$GPGSV,3,2,11,33,44,189,38,04,38,310,23,01,32,120,46,10,22,267,40*78
$GPGSV,3,3,11,11,11,138,41,32,10,068,17,31,07,039,*41
$GPRMC,040131.000,A,3845.1131,N,00916.7396,W,0.00,6.28,120514,,,D*7C
$GPVTG,6.28,T,,M,0.00,N,0.01,K,D*35
$GPGGA,040132.000,3845.1132,N,00916.7395,W,2,8,1.18,150.6,M,50.7,M,0000,0000*44
$GPGSA,A,3,20,11,23,17,13,01,04,10,,,,,1.98,1.18,1.59*04
$GPRMC,040132.000,A,3845.1132,N,00916.7395,W,0.00,6.28,120514,,,D*7F
$GPVTG,6.28,T,,M,0.00,N,0.00,K,D*34
$GPGGA,040133.000,3845.1133,N,00916.7395,W,2,7,1.51,150.5,M,50.7,M,0000,0000*45
$GPGSA,A,3,11,23,17,13,01,04,10,,,,,,2.20,1.51,1.60*01
$GPRMC,040133.000,A,3845.1133,N,00916.7395,W,0.00,6.28,120514,,,D*7F
$GPVTG,6.28,T,,M,0.00,N,0.00,K,D*34
$GPGGA,040134.000,3845.1133,N,00916.7395,W,2,8,1.18,150.5,M,50.7,M,0000,0000*40
$GPGSA,A,3,20,11,23,17,13,01,04,10,,,,,1.98,1.18,1.59*04
$GPRMC,040134.000,A,3845.1133,N,00916.7395,W,0.00,6.28,120514,,,D*78
$GPVTG,6.28,T,,M,0.00,N,0.00,K,D*34
$GPGGA,040135.000,3845.1134,N,00916.7395,W,2,8,1.18,150.4,M,50.7,M,0000,0000*47
$GPGSA,A,3,20,11,23,17,13,01,04,10,,,,,1.98,1.18,1.59*04
$GPRMC,040135.000,A,3845.1134,N,00916.7395,W,0.00,6.28,120514,,,D*7E
$GPVTG,6.28,T,,M,0.00,N,0.01,K,D*35
$GPGGA,040136.000,3845.1134,N,00916.7395,W,2,8,1.18,150.4,M,50.7,M,0000,0000*44
$GPGSA,A,3,20,11,23,17,13,01,04,10,,,,,1.98,1.18,1.59*04
$GPGSV,3,1,11,23,70,083,35,13,58,179,46,17,52,247,47,20,47,059,24*7A
$GPGSV,3,2,11,33,44,189,39,04,38,310,17,01,32,120,46,10,22,267,39*70
$GPGSV,3,3,11,11,11,138,41,32,10,068,20,31,07,039,*45
$GPRMC,040136.000,A,3845.1134,N,00916.7395,W,0.01,6.28,120514,,,D*7C
$GPVTG,6.28,T,,M,0.01,N,0.01,K,D*34
$GPGGA,040137.000,3845.1135,N,00916.7395,W,2,8,1.18,150.4,M,50.7,M,0000,0000*44
$GPGSA,A,3,20,11,23,17,13,01,04,10,,,,,1.98,1.18,1.59*04
$GPRMC,040137.000,A,3845.1135,N,00916.7395,W,0.01,6.28,120514,,,D*7C
$GPVTG,6.28,T,,M,0.01,N,0.01,K,D*34
$GPGGA,040138.000,3845.1135,N,00916.7395,W,2,8,1.18,150.4,M,50.7,M,0000,0000*4B
$GPGSA,A,3,20,11,23,17,13,01,04,10,,,,,1.98,1.18,1.59*04
$GPRMC,040138.000,A,3845.1135,N,00916.7395,W,0.01,6.28,120514,,,D*73
$GPVTG,6.28,T,,M,0.01,N,0.01,K,D*34
$GPGGA,040139.000,3845.1136,N,00916.7395,W,2,8,1.18,150.4,M,50.7,M,0000,0000*49
$GPGSA,A,3,20,11,23,17,13,01,04,10,,,,,1.98,1.18,1.59*04
$GPRMC,040139.000,A,3845.1136,N,00916.7395,W,0.01,6.28,120514,,,D*71
$GPVTG,6.28,T,,M,0.01,N,0.02,K,D*37
$GPGGA,040140.000,3845.1136,N,00916.7395,W,2,7,1.51,150.4,M,50.7,M,0000,0000*45
$GPGSA,A,3,11,23,17,13,01,04,10,,,,,,2.20,1.51,1.60*01
$GPRMC,040140.000,A,3845.1136,N,00916.7395,W,0.01,6.28,120514,,,D*7F
$GPVTG,6.28,T,,M,0.01,N,0.02,K,D*37
$GPGGA,040141.000,3845.1136,N,00916.7395,W,2,7,1.51,150.4,M,50.7,M,0000,0000*44
$GPGSA,A,3,11,23,17,13,01,04,10,,,,,,2.20,1.51,1.60*01
$GPGSV,3,1,11,23,70,083,34,13,58,178,46,17,52,246,47,20,47,059,20*7F
$GPGSV,3,2,11,33,44,189,38,04,38,310,20,01,32,120,45,10,22,267,39*76
$GPGSV,3,3,11,11,11,138,40,32,10,068,20,31,07,039,*44
$GPRMC,040141.000,A,3845.1136,N,00916.7395,W,0.01,6.28,120514,,,D*7E
$GPVTG,6.28,T,,M,0.01,N,0.02,K,D*37
$GPGGA,040142.000,3845.1137,N,00916.7395,W,2,7,1.51,150.4,M,50.7,M,0000,0000*46
$GPGSA,A,3,11,23,17,13,01,04,10,,,,,,2.20,1.51,1.60*01
$GPRMC,040142.000,A,3845.1137,N,00916.7395,W,0.01,6.28,120514,,,D*7C
$GPVTG,6.28,T,,M,0.01,N,0.02,K,D*37
$GPGGA,040143.000,3845.1137,N,00916.7395,W,2,7,1.51,150.5,M,50.7,M,0000,0000*46
$GPGSA,A,3,11,23,17,13,01,04,10,,,,,,2.20,1.51,1.60*01
$GPRMC,040143.000,A,3845.1137,N,00916.7395,W,0.01,6.28,120514,,,D*7D
$GPVTG,6.28,T,,M,0.01,N,0.03,K,D*36
$GPGGA,040144.000,3845.1137,N,00916.7394,W,2,7,1.51,150.5,M,50.7,M,0000,0000*40
$GPGSA,A,3,11,23,17,13,01,04,10,,,,,,2.20,1.51,1.59*0B
